{"000002":{"address":"1822 Santa Fe Long Beach, CA 90810","latitude":33.7904,"longitude":-118.215},"000015":{"address":"6104 University Ave San Diego, CA 92115","latitude":32.7531,"longitude":-117.064},"000017":{"address":"1518 S San Gabriel San Gabriel, CA 91776","latitude":34.0812,"longitude":-118.091},"000024":{"address":"2204 N Garey Pomona, CA 91767","latitude":34.0885,"longitude":-117.75},"000031":{"address":"7847 E Mc Dowell Rd Scottsdale, AZ 85257","latitude":33.4656,"longitude":-111.912},"000048":{"address":"2500 E Pacific Coast Hwy Long Beach, CA 90804","latitude":33.7898,"longitude":-118.162},"000057":{"address":"3502 W Van Buren Phoenix, AZ 85009","latitude":33.451571,"longitude":-112.134855},"000067":{"address":"9019 N 19th Ave. Phoenix, AZ 85021","latitude":33.5687,"longitude":-112.099},"000071":{"address":"1115 N San Fernando Blvd Burbank, CA 91504","latitude":34.1883,"longitude":-118.319},"000080":{"address":"3101 E Thomas Rd Phoenix, AZ 85016","latitude":33.4805,"longitude":-112.015},"000081":{"address":"2450 E Indian School Rd Phoenix, AZ 85016","latitude":33.4951,"longitude":-112.029},"000084":{"address":"16901 Hawthorne Blvd Lawndale, CA 90260","latitude":33.8773,"longitude":-118.353},"000086":{"address":"5958 Lankershim Blvd North Hollywood, CA 91601","latitude":34.1792,"longitude":-118.383},"000090":{"address":"2207 Lincoln Blvd Santa Monica, CA 90405","latitude":34.01019,"longitude":-118.480113},"000114":{"address":"7192 Westminster Blvd Westminster, CA 92683","latitude":33.759,"longitude":-118.004},"000134":{"address":"1113 E Colorado St Glendale, CA 91205","latitude":34.1427,"longitude":-118.241},"000141":{"address":"3517 W Glendale Ave Phoenix, AZ 85051","latitude":33.5383,"longitude":-112.135},"000146":{"address":"3125 E Broadway Long Beach, CA 90803","latitude":33.7648,"longitude":-118.155},"000184":{"address":"699 South Coast Hwy Laguna Beach, CA 92651","latitude":33.5377,"longitude":-117.78},"000212":{"address":"8250 Laurel Canyon Blvd North Hollywood, CA 91605","latitude":34.2209,"longitude":-118.396},"000215":{"address":"6800 Eastern Avenue Bell Gardens, CA 90201","latitude":33.9713,"longitude":-118.164},"000236":{"address":"631 10th Street Marysville, CA 95901","latitude":39.1461,"longitude":-121.594},"000243":{"address":"1075 W 49th St Hialeah, FL 33012","latitude":25.8669,"longitude":-80.3048},"000273":{"address":"2615 San Mateo NE Albuquerque, NM 87110","latitude":35.1099,"longitude":-106.587},"000274":{"address":"669 West 7th Ave Eugene, OR 97402","latitude":44.0522,"longitude":-123.103},"000286":{"address":"21120 Devonshire Street Chatsworth, CA 91311","latitude":34.2572,"longitude":-118.594},"000290":{"address":"425 G Street Davis, CA 95616","latitude":38.5469,"longitude":-121.74},"000303":{"address":"1507 S Nevada Ave Colorado Springs, CO 80906","latitude":38.8123,"longitude":-104.822},"000328":{"address":"2103 N. Mesa St. El Paso, TX 79902","latitude":31.7727,"longitude":-106.5},"000345":{"address":"301 E Abriendo Ave Pueblo, CO 81004","latitude":38.2576,"longitude":-104.619},"000367":{"address":"301 N Citrus Covina, CA 91723","latitude":34.0887,"longitude":-117.89},"000378":{"address":"421 E Yosemite Ave Manteca, CA 95336","latitude":37.7976,"longitude":-121.212},"000380":{"address":"2921 E  Busch Blvd Tampa, FL 33612","latitude":28.0323,"longitude":-82.4267},"000403":{"address":"2610 Battleground Ave Greensboro, NC 27408","latitude":36.1073,"longitude":-79.8272},"000404":{"address":"4502 O Street Lincoln, NE 68510","latitude":40.8137,"longitude":-96.6568},"000409":{"address":"2681 Lake Tahoe Blvd South Lake Tahoe, CA 96150","latitude":38.9284,"longitude":-119.982},"000456":{"address":"411 S Providence Rd Columbia, MO 65203","latitude":38.9468,"longitude":-92.3346},"000477":{"address":"1662 Poplar Avenue Memphis, TN 38104","latitude":35.1432,"longitude":-90.0049},"000480":{"address":"627 N Wilson Way Stockton, CA 95205","latitude":37.9622,"longitude":-121.274},"000511":{"address":"1026 Grand Ave Billings, MT 59102","latitude":45.784,"longitude":-108.542},"000597":{"address":"5856 Rivers Ave North Charleston, SC 29406","latitude":32.9012,"longitude":-80.018},"000613":{"address":"2183 Frayser Blvd. Memphis, TN 38127","latitude":35.217,"longitude":-89.9907},"000649":{"address":"5518 South Blvd Charlotte, NC 28217","latitude":35.160467,"longitude":-80.876356},"000774":{"address":"2310 S Broadway Denver, CO 80210","latitude":39.674541,"longitude":-104.98737},"000833":{"address":"2046 W Manchester Blvd Los Angeles, CA 90047","latitude":33.9599,"longitude":-118.315},"000848":{"address":"2306 Dix Hwy Lincoln Park, MI 48146","latitude":42.2506,"longitude":-83.1953},"000864":{"address":"3118 E 11th Street Tulsa, OK 74104","latitude":36.1477,"longitude":-95.9442},"000867":{"address":"25120 Michigan Dearborn, MI 48124","latitude":42.2983,"longitude":-83.2829},"000896":{"address":"635 San Pablo Ave Albany, CA 94706","latitude":37.894,"longitude":-122.3},"000932":{"address":"18941 Soledad Canyon Rd Canyon Country, CA 91351","latitude":34.416,"longitude":-118.466},"000939":{"address":"3265 W Laskey Rd Toledo, OH 43613","latitude":41.7061,"longitude":-83.6234},"000951":{"address":"850 North Ave Grand Junction, CO 81501","latitude":39.0776,"longitude":-108.558},"000953":{"address":"1725 N Oxnard Blvd Oxnard, CA 93030","latitude":34.2178,"longitude":-119.178},"000992":{"address":"1365 S Park Victoria Milpitas, CA 95035","latitude":37.4174,"longitude":-121.876},"001020":{"address":"6303 Platt Ave Woodland Hills, CA 91367","latitude":34.1858,"longitude":-118.643},"001037":{"address":"427 W Johnson Ave Fond Du Lac, WI 54935","latitude":43.7846,"longitude":-88.4633},"001041":{"address":"4318 Marconi Ave Sacramento, CA 95821","latitude":38.6175,"longitude":-121.363},"001070":{"address":"989 W Foothill Blvd. Upland, CA 91786","latitude":34.1073,"longitude":-117.665},"001089":{"address":"5506 E Mockingbird Ln. Dallas, TX 75206","latitude":32.8364,"longitude":-96.7733},"001094":{"address":"2901 South 14th Street Abilene, TX 79605","latitude":32.43209,"longitude":-99.75777},"001099":{"address":"4710 Rogers Ave Fort Smith, AR 72903","latitude":35.367477,"longitude":-94.379854},"001123":{"address":"2601 Main Street Joplin, MO 64804","latitude":37.0622,"longitude":-94.5142},"001128":{"address":"1029 S Range Line Rd Joplin, MO 64801","latitude":37.0796,"longitude":-94.4771},"001129":{"address":"1506 Galvin Rd S Bellevue, NE 68005","latitude":41.1447,"longitude":-95.9123},"001156":{"address":"1309 Mount Vernon Ave Marion, OH 43302","latitude":40.5807,"longitude":-83.0947},"001163":{"address":"4324 Camp Robinson Rd North Little Rock, AR 72118","latitude":34.79442,"longitude":-92.271264},"001178":{"address":"6000 Crenshaw Blvd Los Angeles, CA 90043","latitude":33.9853,"longitude":-118.331},"001204":{"address":"1115 Tiffin Ave Findlay, OH 45840","latitude":41.049,"longitude":-83.629},"001243":{"address":"205 Eastchester Dr High Point, NC 27262","latitude":35.9832,"longitude":-80.0198},"001258":{"address":"315 S 291 Hwy Liberty, MO 64068","latitude":39.2421,"longitude":-94.4407},"001264":{"address":"26450 Plymouth Rd. Redford, MI 48239","latitude":42.3709,"longitude":-83.303},"001279":{"address":"4875 Tuscarawas St. W Canton, OH 44708","latitude":40.7944,"longitude":-81.4392},"001281":{"address":"717 Kapahulu Ave Honolulu, HI 96816","latitude":21.2804,"longitude":-157.814},"001288":{"address":"5066 State St. Saginaw, MI 48603","latitude":43.4372,"longitude":-84.016},"001331":{"address":"3127 Inwood Rd Dallas, TX 75235","latitude":32.8267,"longitude":-96.8305},"001360":{"address":"5530 Everhart Corpus Christi, TX 78411","latitude":27.7072,"longitude":-97.3888},"001370":{"address":"615 Waiakamilo Ave Honolulu, HI 96817","latitude":21.324,"longitude":-157.875},"001372":{"address":"1033 1/2 Bay Area Blvd Houston, TX 77058","latitude":29.5561,"longitude":-95.1191},"001394":{"address":"2226 E Main Street Farmington, NM 87401","latitude":36.7392,"longitude":-108.178},"001398":{"address":"1672 Rice St Saint Paul, MN 55117","latitude":44.9916,"longitude":-93.1053},"001413":{"address":"146 S Kamehameha Hwy Wahiawa, HI 96786","latitude":21.4943,"longitude":-158.029},"001419":{"address":"1330 Lincoln Ave Loveland, CO 80537","latitude":40.4065,"longitude":-105.073},"001423":{"address":"2410 E Rand Rd Arlington Heights, IL 60004","latitude":42.0947,"longitude":-87.9532},"001435":{"address":"1104 NE 3rd St Bend, OR 97701","latitude":44.0613,"longitude":-121.302},"001439":{"address":"4141 E 14 Mile Road Sterling Heights, MI 48310","latitude":42.5359,"longitude":-83.0666},"001447":{"address":"621 W Henderson St Cleburne, TX 76033","latitude":32.3457,"longitude":-97.3944},"001469":{"address":"2307 S. Wayne Rd. Westland, MI 48186","latitude":42.2918,"longitude":-83.3865},"001498":{"address":"638 S Oyster Bay Rd Hicksville, NY 11801","latitude":40.7703,"longitude":-73.5016},"001510":{"address":"10060 Telegraph Rd. Taylor, MI 48180","latitude":42.233,"longitude":-83.2701},"001515":{"address":"45-1014 Kamehameha Hwy. Kaneohe, HI 96744","latitude":21.4151,"longitude":-157.801},"001521":{"address":"5641 Freeport Blvd. Sacramento, CA 95822","latitude":38.5229,"longitude":-121.498},"001524":{"address":"5589 Kanan Road Agoura Hills, CA 91301","latitude":34.1518,"longitude":-118.759},"001530":{"address":"934 Valkenburgh St Honolulu, HI 96818","latitude":21.3448,"longitude":-157.928},"001531":{"address":"915 NE Highway 99W McMinnville, OR 97128","latitude":45.2252,"longitude":-123.189},"001557":{"address":"22670 Allen Road Woodhaven, MI 48183","latitude":42.1432,"longitude":-83.2269},"001567":{"address":"28540 Gratiot Ave. Roseville, MI 48066","latitude":42.5061,"longitude":-82.9302},"001571":{"address":"11707 Merriman Rd. Livonia, MI 48150","latitude":42.3695,"longitude":-83.3531},"001578":{"address":"5647 Dorchester Road North Charleston, SC 29418","latitude":32.863951,"longitude":-80.049956},"001590":{"address":"24247 Lorain Rd. North Olmsted, OH 44070","latitude":41.4284,"longitude":-81.8904},"001591":{"address":"47154 Van Dyke Ave. Utica, MI 48317","latitude":42.6418,"longitude":-83.0325},"001613":{"address":"1937 Deer Park Avenue Deer Park, NY 11729","latitude":40.7635,"longitude":-73.3296},"001618":{"address":"1209 N. Missouri St. West Memphis, AR 72301","latitude":35.1604,"longitude":-90.1844},"001636":{"address":"5709 Broadway Blvd. Garland, TX 75043","latitude":32.8456,"longitude":-96.5959},"001646":{"address":"5634 S Cedar Lansing, MI 48911","latitude":42.6754,"longitude":-84.5477},"001648":{"address":"547 Merrick Road Lynbrook, NY 11563","latitude":40.6602,"longitude":-73.6822},"001651":{"address":"801 W Ganson Street Jackson, MI 49202","latitude":42.2543,"longitude":-84.4236},"001653":{"address":"110 W State Street Alliance, OH 44601","latitude":40.9014,"longitude":-81.1073},"001661":{"address":"8112 Telegraph Road Dearborn Heights, MI 48127","latitude":42.35,"longitude":-83.2733},"001667":{"address":"1898 New York Avenue Huntington Station, NY 11746","latitude":40.8367,"longitude":-73.4114},"001669":{"address":"1348 N Glenstone Springfield, MO 65802","latitude":37.2237,"longitude":-93.2611},"001670":{"address":"381 W Highway 303 Grand Prairie, TX 75051","latitude":32.7092,"longitude":-97.0056},"001675":{"address":"7815 Wise Avenue Dundalk, MD 21222","latitude":39.2677,"longitude":-76.4983},"001683":{"address":"2290 Ashland Street Ashland, OR 97520","latitude":42.1852,"longitude":-122.672},"001684":{"address":"3045 Covington Pike Memphis, TN 38128","latitude":35.2087,"longitude":-89.8951},"001690":{"address":"805 E Main Street Kent, OH 44240","latitude":41.154,"longitude":-81.3473},"001691":{"address":"445 N Telegraph Rd. Monroe, MI 48161","latitude":41.9283,"longitude":-83.4125},"001693":{"address":"3029 Cerrillos Road Santa Fe, NM 87507","latitude":35.6537,"longitude":-105.995},"001695":{"address":"2933 S National Ave. Springfield, MO 65804","latitude":37.161,"longitude":-93.2776},"001701":{"address":"121 Oneawa St Kailua, HI 96734","latitude":21.3962,"longitude":-157.745},"001704":{"address":"1501 W 6th St The Dalles, OR 97058","latitude":45.6087,"longitude":-121.203},"001715":{"address":"3842 S. Emerson Ave Indianapolis, IN 46203","latitude":39.7107,"longitude":-86.0831},"001726":{"address":"405 E. Platte Avenue Colorado Springs, CO 80903","latitude":38.8378,"longitude":-104.817},"001732":{"address":"45132 Ford Road Canton, MI 48187","latitude":42.3225,"longitude":-83.4849},"001734":{"address":"205 E Oak Street Conway, AR 72032","latitude":35.0915,"longitude":-92.4257},"001738":{"address":"38330 W 10 Mile Rd Farmington Hills, MI 48335","latitude":42.4687,"longitude":-83.4247},"001739":{"address":"231 E Ireland Road South Bend, IN 46614","latitude":41.6294,"longitude":-86.2478},"001745":{"address":"1704 Military Rd Benton, AR 72015","latitude":34.5804,"longitude":-92.5738},"001746":{"address":"3076 Long Beach Road Oceanside, NY 11572","latitude":40.6371,"longitude":-73.6404},"001748":{"address":"700 Eastern Boulevard Essex, MD 21221","latitude":39.3107,"longitude":-76.4707},"001758":{"address":"1293 Canton Rd Akron, OH 44312","latitude":41.0306,"longitude":-81.4264},"001764":{"address":"2804 Airline Blvd Portsmouth, VA 23701","latitude":36.8104,"longitude":-76.3658},"001795":{"address":"201 S. Merriman Road Westland, MI 48185","latitude":42.3097,"longitude":-83.3491},"001813":{"address":"5060 Delhi Ave Cincinnati, OH 45238","latitude":39.0955,"longitude":-84.6113},"001820":{"address":"4380 Youngstown Poland Rd Youngstown, OH 44514","latitude":41.0561,"longitude":-80.6161},"001830":{"address":"2100 S. Caraway Road Jonesboro, AR 72401","latitude":35.8195,"longitude":-90.6776},"001846":{"address":"545 Lee St SW Atlanta, GA 30310","latitude":33.74,"longitude":-84.4145},"001856":{"address":"718 Boulevard St. Dover, OH 44622","latitude":40.5128,"longitude":-81.4551},"001863":{"address":"1501 Nile Drive Corpus Christi, TX 78412","latitude":27.6957,"longitude":-97.3474},"001872":{"address":"6404 Glenwood Ave Raleigh, NC 27612","latitude":35.8587,"longitude":-78.7054},"001879":{"address":"543 Jefferson Davis Hwy Fredericksburg, VA 22401","latitude":38.3123,"longitude":-77.4767},"001880":{"address":"1051 Trowbridge Road East Lansing, MI 48823","latitude":42.7195,"longitude":-84.4975},"001886":{"address":"701 Trenton Ave Findlay, OH 45840","latitude":41.0585,"longitude":-83.6621},"001891":{"address":"2760 South Alma School Mesa, AZ 85210","latitude":33.3645,"longitude":-111.861},"001892":{"address":"625 Baltimore Blvd Westminster, MD 21157","latitude":39.5625,"longitude":-76.9721},"001896":{"address":"29925 Orchard Lake Road Farmington Hills, MI 48334","latitude":42.5165,"longitude":-83.3601},"001898":{"address":"2407 Hardy St Hattiesburg, MS 39401","latitude":31.325,"longitude":-89.3272},"001899":{"address":"4809 W Market St Greensboro, NC 27407","latitude":36.069,"longitude":-79.8709},"001929":{"address":"2454 Maple Street Zanesville, OH 43701","latitude":39.9683,"longitude":-82.0095},"001937":{"address":"1226 W Prospect Ashtabula, OH 44004","latitude":41.8621,"longitude":-80.7988},"001938":{"address":"2280 W. Stadium Ann Arbor, MI 48103","latitude":42.276,"longitude":-83.7776},"001940":{"address":"801 Us 31 North Greenwood, IN 46142","latitude":39.6286,"longitude":-86.1213},"001950":{"address":"5185 Turney Rd. Garfield Heights, OH 44125","latitude":41.4207,"longitude":-81.6085},"001957":{"address":"7051 Dodge Street Omaha, NE 68132","latitude":41.2595,"longitude":-96.0219},"001968":{"address":"9600 Montgomery Blvd N E Albuquerque, NM 87111","latitude":35.1304,"longitude":-106.534},"001971":{"address":"10484 Pelham Rd. Taylor, MI 48180","latitude":42.2312,"longitude":-83.2305},"001973":{"address":"212 Wooster Rd Barberton, OH 44203","latitude":41.016,"longitude":-81.6057},"001974":{"address":"303 W Highland Ave Selma, AL 36701","latitude":32.4314,"longitude":-87.0351},"001975":{"address":"4006 Route 130 Delran, NJ 08075","latitude":40.0142,"longitude":-74.957},"001980":{"address":"5380 Atlanta Hwy Montgomery, AL 36109","latitude":32.3816,"longitude":-86.2158},"001988":{"address":"5591 Warrensville Ctr Rd Maple Heights, OH 44137","latitude":41.4105,"longitude":-81.5369},"001991":{"address":"418 Florida Blvd Denham Springs, LA 70726","latitude":30.4807,"longitude":-90.9567},"001994":{"address":"315 Claremont Ave Ashland, OH 44805","latitude":40.8667,"longitude":-82.3185},"001999":{"address":"31305 Southfield Road Beverly Hills, MI 48025","latitude":42.5194,"longitude":-83.2238},"002028":{"address":"3509 N Harlem Chicago, IL 60634","latitude":41.9436,"longitude":-87.8067},"002029":{"address":"2210 Orchard Lake Rd Sylvan Lake, MI 48320","latitude":42.6127,"longitude":-83.3275},"002035":{"address":"3902 Concord Pke Wilmington, DE 19803","latitude":39.807,"longitude":-75.5491},"002043":{"address":"251 North Litchfield Road Goodyear, AZ 85338","latitude":33.4492,"longitude":-112.358},"002051":{"address":"13745 S Cicero Crestwood, IL 60445","latitude":41.6428,"longitude":-87.7375},"002055":{"address":"1076 Reservoir Ave Cranston, RI 02910","latitude":41.7719,"longitude":-71.4523},"002057":{"address":"3350 E Washington Street Indianapolis, IN 46201","latitude":39.7691,"longitude":-86.1092},"002060":{"address":"1700 N. Broad St. Lansdale, PA 19446","latitude":40.257,"longitude":-75.268},"002066":{"address":"1812 N. Church St Burlington, NC 27217","latitude":36.0957,"longitude":-79.4075},"002076":{"address":"105 E Ridge Rd Griffith, IN 46319","latitude":41.5505,"longitude":-87.426},"002079":{"address":"824 E. Admiral Doyle Drive New Iberia, LA 70560","latitude":29.9873,"longitude":-91.8248},"002080":{"address":"2428 Highway 6 & 50 Grand Junction, CO 81505","latitude":39.09,"longitude":-108.604},"002083":{"address":"3350 E Andy Devine Kingman, AZ 86401","latitude":35.2216,"longitude":-114.006},"002084":{"address":"7475 Day Dr Parma, OH 44129","latitude":41.3803,"longitude":-81.7356},"002086":{"address":"15500 Detroit Avenue Lakewood, OH 44107","latitude":41.4853,"longitude":-81.8052},"002091":{"address":"1605 No Park Drive Winslow, AZ 86047","latitude":35.0371,"longitude":-110.698},"002096":{"address":"1115 Summit Ave Greensboro, NC 27405","latitude":36.0901,"longitude":-79.7734},"002100":{"address":"920 Cleveland St Elyria, OH 44035","latitude":41.3799,"longitude":-82.0699},"002106":{"address":"4955 Las Virgenes Rd Calabasas, CA 91302","latitude":34.1475,"longitude":-118.698},"002111":{"address":"1479 Mineral Springs Ave. North Providence, RI 02904","latitude":41.8658,"longitude":-71.4441},"002113":{"address":"3423 W 86th St Indianapolis, IN 46268","latitude":39.9114,"longitude":-86.2191},"002114":{"address":"35020 Euclid Ave Willoughby, OH 44094","latitude":41.6248,"longitude":-81.4388},"002124":{"address":"7275 W 10th St Indianapolis, IN 46214","latitude":39.779,"longitude":-86.2885},"002126":{"address":"514 Washington St Attleboro, MA 02703","latitude":41.9144,"longitude":-71.3608},"002131":{"address":"320 N Northwest Hwy Palatine, IL 60067","latitude":42.1166,"longitude":-88.0342},"002140":{"address":"14839 Telegraph Rd Taylor, MI 48180","latitude":42.1984,"longitude":-83.2673},"002147":{"address":"26002 Euclid Ave Euclid, OH 44132","latitude":41.5883,"longitude":-81.5009},"002149":{"address":"1812 Richmond Rd Williamsburg, VA 23185","latitude":37.2966,"longitude":-76.7264},"002150":{"address":"216 S Timberland Lufkin, TX 75901","latitude":31.3333,"longitude":-94.7206},"002152":{"address":"1605 North St. Nacogdoches, TX 75965","latitude":31.6172,"longitude":-94.653},"002155":{"address":"660 S Lapeer Rd Lake Orion, MI 48362","latitude":42.7738,"longitude":-83.2394},"002156":{"address":"5611 S La Grange Rd Countryside, IL 60525","latitude":41.7883,"longitude":-87.8682},"002159":{"address":"825 W North Ave Melrose Park, IL 60160","latitude":41.9086,"longitude":-87.8442},"002163":{"address":"1799 3rd Street S W Winter Haven, FL 33880","latitude":28.0043,"longitude":-81.7311},"002167":{"address":"1761 Howell Mill Rd NW Atlanta, GA 30318","latitude":33.8022,"longitude":-84.4149},"002170":{"address":"4302 Kirkwood Hwy Wilmington, DE 19808","latitude":39.7276,"longitude":-75.6498},"002177":{"address":"1872 E State St Salem, OH 44460","latitude":40.9013,"longitude":-80.8346},"002181":{"address":"2640 East Tudor Road Anchorage, AK 99507","latitude":61.1807,"longitude":-149.831},"002187":{"address":"973 High Street Wadsworth, OH 44281","latitude":41.0495,"longitude":-81.7282},"002188":{"address":"320 E Wooster Bowling Green, OH 43402","latitude":41.3746,"longitude":-83.6465},"002189":{"address":"1530 W Algonquin Rd Arlington Heights, IL 60005","latitude":42.057,"longitude":-88.0022},"002192":{"address":"1225 W Colton Redlands, CA 92374","latitude":34.0627,"longitude":-117.201},"002201":{"address":"5780 Broadview Rd Parma, OH 44134","latitude":41.4056,"longitude":-81.6916},"002220":{"address":"11701 W Colfax Lakewood, CO 80215","latitude":39.7405,"longitude":-105.13},"002224":{"address":"6720 Midlothian Turnpike Richmond, VA 23225","latitude":37.5026,"longitude":-77.5199},"002236":{"address":"15220 E 12 Mile Rd Roseville, MI 48066","latitude":42.5086,"longitude":-82.9677},"002252":{"address":"11620 SE Mill Plain Blvd Vancouver, WA 98684","latitude":45.6209,"longitude":-122.552},"002253":{"address":"3420 SW Cedar Hills Blvd Beaverton, OR 97005","latitude":45.495,"longitude":-122.809},"002258":{"address":"1237 Trotwood Ave Columbia, TN 38401","latitude":35.6049,"longitude":-87.0664},"002260":{"address":"1045 W 9 Mile Road Ferndale, MI 48220","latitude":42.4602,"longitude":-83.1472},"002263":{"address":"1000 Brown Street Dayton, OH 45409","latitude":39.7452,"longitude":-84.1827},"002274":{"address":"101 S E 29th Street Topeka, KS 66605","latitude":39.0149,"longitude":-95.6816},"002278":{"address":"1335 W Kearney St Springfield, MO 65803","latitude":37.2411,"longitude":-93.3079},"002279":{"address":"3776 W 150th Street Cleveland, OH 44111","latitude":41.4519,"longitude":-81.8017},"002289":{"address":"1607 E. Kemper Road Cincinnati, OH 45246","latitude":39.2853,"longitude":-84.4456},"002298":{"address":"110 E Pulaski Hwy Elkton, MD 21921","latitude":39.5991,"longitude":-75.8258},"002299":{"address":"1804 Fort Jones Rd Yreka, CA 96097","latitude":41.7029,"longitude":-122.644},"002302":{"address":"4413 Western Ave Knoxville, TN 37921","latitude":35.9731,"longitude":-83.9844},"002309":{"address":"77 College Rd Fairbanks, AK 99701","latitude":64.8531,"longitude":-147.713},"002319":{"address":"3378 Poplar Ave Memphis, TN 38111","latitude":35.1292,"longitude":-89.9495},"002321":{"address":"1438 Los Angeles Ave Simi Valley, CA 93065","latitude":34.2716,"longitude":-118.771},"002323":{"address":"15160 E Mississippi Aurora, CO 80012","latitude":39.6965,"longitude":-104.811},"002326":{"address":"804 England Street Ashland, VA 23005","latitude":37.7585,"longitude":-77.4669},"002329":{"address":"2013 NW Topeka Blvd Topeka, KS 66608","latitude":39.0861,"longitude":-95.6653},"002332":{"address":"4747 Coldwater Rd Fort Wayne, IN 46825","latitude":41.1215,"longitude":-85.1359},"002334":{"address":"1633 North Expressway Griffin, GA 30223","latitude":33.2762,"longitude":-84.2916},"002358":{"address":"820 S Highway 65 Sedalia, MO 65301","latitude":38.7041,"longitude":-93.2508},"002359":{"address":"1717 Grass Valley Hwy Auburn, CA 95603","latitude":38.9272,"longitude":-121.087},"002360":{"address":"270 E Army Trail Rd Glendale Heights, IL 60139","latitude":41.9371,"longitude":-88.0779},"002363":{"address":"601 High Street Mount Holly, NJ 08060","latitude":40.0077,"longitude":-74.7968},"002365":{"address":"4900 Central Ave NE Minneapolis, MN 55421","latitude":45.0575,"longitude":-93.2481},"002366":{"address":"11020 Hamilton Ave Cincinnati, OH 45231","latitude":39.2791,"longitude":-84.5635},"002367":{"address":"701 N Maguire St Warrensburg, MO 64093","latitude":38.7714,"longitude":-93.7349},"002374":{"address":"1561 Fitzgerald Dr Pinole, CA 94564","latitude":37.9917,"longitude":-122.302},"002384":{"address":"1540 Stinson Blvd NE Minneapolis, MN 55413","latitude":45.0038,"longitude":-93.2278},"002389":{"address":"800 E Alosta Azusa, CA 91702","latitude":34.1296,"longitude":-117.893},"002393":{"address":"2010 Ross Osage Amarillo, TX 79103","latitude":35.1915,"longitude":-101.817},"002395":{"address":"1630 Robert St S Saint Paul, MN 55118","latitude":44.8974,"longitude":-93.0803},"002396":{"address":"15110 Highway 7 Minnetonka, MN 55345","latitude":44.9218,"longitude":-93.472},"002398":{"address":"85 Fort Dix St Wrightstown, NJ 08562","latitude":40.0369,"longitude":-74.6175},"002401":{"address":"7201 JFK Blvd Sherwood, AR 72120","latitude":34.8206,"longitude":-92.2331},"002403":{"address":"977 SW Oak St Hillsboro, OR 97123","latitude":45.5191,"longitude":-123.001},"002412":{"address":"4910 Shelbyville Rd Louisville, KY 40207","latitude":38.2502,"longitude":-85.6256},"002420":{"address":"46690 Mission Blvd Fremont, CA 94538","latitude":37.4912,"longitude":-121.927},"002421":{"address":"6620 Wayzata Blvd Golden Valley, MN 55426","latitude":44.9721,"longitude":-93.3645},"002425":{"address":"2121 Pleasant Hill Road Duluth, GA 30096","latitude":33.9581,"longitude":-84.1342},"002426":{"address":"2104 W. Roosevelt Blvd. Monroe, NC 28110","latitude":35.0062,"longitude":-80.5578},"002427":{"address":"402 Ave Q Lubbock, TX 79401","latitude":33.5921,"longitude":-101.856},"002433":{"address":"6956 Ogden Ave Berwyn, IL 60402","latitude":41.8255,"longitude":-87.7971},"002434":{"address":"10906 Scarsdale Blvd #B Houston, TX 77089","latitude":29.586,"longitude":-95.2118},"002439":{"address":"4910 Towson Avenue Fort Smith, AR 72901","latitude":35.3366,"longitude":-94.4231},"002440":{"address":"8541 W Grand River Avenue Brighton, MI 48116","latitude":42.542,"longitude":-83.7866},"002442":{"address":"16040 SE 82nd Dr Clackamas, OR 97015","latitude":45.4066,"longitude":-122.569},"002444":{"address":"13709 Walsingham Rd Largo, FL 33774","latitude":27.8807,"longitude":-82.8286},"002448":{"address":"5225 East Bay Drive Clearwater, FL 33764","latitude":27.916,"longitude":-82.7325},"002450":{"address":"800 W Ventura St Fillmore, CA 93015","latitude":34.3957,"longitude":-118.92},"002453":{"address":"3411 Bradshaw Road Sacramento, CA 95827","latitude":38.5616,"longitude":-121.336},"002458":{"address":"125 W Los Angeles Ave Moorpark, CA 93021","latitude":34.2792,"longitude":-118.884},"002459":{"address":"1204 N Lake St Aurora, IL 60506","latitude":41.781,"longitude":-88.3172},"002463":{"address":"1301 W Wood St Willows, CA 95988","latitude":39.5247,"longitude":-122.212},"002469":{"address":"2030 Grand River Avenue Okemos, MI 48864","latitude":42.722,"longitude":-84.4243},"002471":{"address":"109 Olympia Park Road Grass Valley, CA 95945","latitude":39.2354,"longitude":-121.038},"002473":{"address":"1110 Hurffville Rd Deptford, NJ 08096","latitude":39.8362,"longitude":-75.0887},"002474":{"address":"1919 S Broadway Santa Maria, CA 93454","latitude":34.9261,"longitude":-120.436},"002477":{"address":"108 E. Broadway Louisville, KY 40202","latitude":38.2455,"longitude":-85.7527},"002479":{"address":"3600 Sonoma Blvd Vallejo, CA 94590","latitude":38.1231,"longitude":-122.255},"002482":{"address":"4035 W Chapman Orange, CA 92868","latitude":33.7892,"longitude":-117.897},"002484":{"address":"8389 Mira Mesa Blvd San Diego, CA 92126","latitude":32.9125,"longitude":-117.143},"002487":{"address":"2421 So Hamilton Rd Columbus, OH 43232","latitude":39.9255,"longitude":-82.8804},"002488":{"address":"808 S High St Columbus, OH 43206","latitude":39.9458,"longitude":-82.9971},"002491":{"address":"376 Kamehameha Hwy Pearl City, HI 96782","latitude":21.3881,"longitude":-157.956},"002494":{"address":"3847 W Market St Fairlawn, OH 44333","latitude":41.1362,"longitude":-81.6379},"002497":{"address":"3920 S Delsea Dr Vineland, NJ 08360","latitude":39.4299,"longitude":-75.0407},"002499":{"address":"1380 Conant St. Maumee, OH 43537","latitude":41.5797,"longitude":-83.6638},"002500":{"address":"3460 Airport Hwy Toledo, OH 43609","latitude":41.6249,"longitude":-83.6253},"002507":{"address":"3816 Red Bluff Rd Pasadena, TX 77503","latitude":29.6843,"longitude":-95.1559},"002511":{"address":"1069 Bardstown Rd Louisville, KY 40204","latitude":38.2392,"longitude":-85.7219},"002513":{"address":"6944 Archer Chicago, IL 60638","latitude":41.7922,"longitude":-87.7956},"002517":{"address":"2010 N Commercial St Harrisonville, MO 64701","latitude":38.6637,"longitude":-94.3667},"002518":{"address":"1155 Westport Road Manhattan, KS 66502","latitude":39.1927,"longitude":-96.6065},"002523":{"address":"2925 S 4th St. Leavenworth, KS 66048","latitude":39.2878,"longitude":-94.9056},"002525":{"address":"3970 Hauck Road Sharonville, OH 45241","latitude":39.291,"longitude":-84.3962},"002526":{"address":"9656 Airline Hwy Baton Rouge, LA 70815","latitude":30.4334,"longitude":-91.0821},"002528":{"address":"16931 E Iliff Aurora, CO 80013","latitude":39.6738,"longitude":-104.79},"002529":{"address":"7480 Edinger Ave Huntington Beach, CA 92647","latitude":33.73,"longitude":-117.998},"002531":{"address":"15357 Palmdale Rd Victorville, CA 92392","latitude":34.5069,"longitude":-117.328},"002542":{"address":"17764 S Golden Rd Golden, CO 80401","latitude":39.7417,"longitude":-105.2},"002547":{"address":"1740 Sycamore View Road Memphis, TN 38134","latitude":35.173,"longitude":-89.8689},"002552":{"address":"3307 E Race Searcy, AR 72143","latitude":35.25,"longitude":-91.692},"002569":{"address":"604 W Moore St Terrell, TX 75160","latitude":32.7373,"longitude":-96.2832},"002580":{"address":"104 South Goose Creek Blvd Goose Creek, SC 29445","latitude":32.9939,"longitude":-80.0394},"002582":{"address":"2114 N Galloway Ave. Mesquite, TX 75150","latitude":32.7945,"longitude":-96.6116},"002586":{"address":"1606 E Belt Line Rd. Richardson, TX 75081","latitude":32.9451,"longitude":-96.6941},"002595":{"address":"22953 Sandalfoot Plaza Drive Boca Raton, FL 33428","latitude":26.3343,"longitude":-80.2019},"002609":{"address":"1007 N Commerce Street Ardmore, OK 73401","latitude":34.1858,"longitude":-97.1437},"002613":{"address":"2002 Grand Ave Glenwood Springs, CO 81601","latitude":39.532,"longitude":-107.325},"002615":{"address":"810 Broadway Amityville, NY 11701","latitude":40.702,"longitude":-73.4274},"002616":{"address":"1245 Deer Park Ave North Babylon, NY 11703","latitude":40.7382,"longitude":-73.3201},"002617":{"address":"311 Montauk Hwy Lindenhurst, NY 11757","latitude":40.6837,"longitude":-73.353},"002619":{"address":"127 South Dr Natchitoches, LA 71457","latitude":31.7489,"longitude":-93.082},"002621":{"address":"212 Thomas Rd West Monroe, LA 71291","latitude":32.5106,"longitude":-92.1577},"002622":{"address":"6560 SW Beaverton Portland, OR 97225","latitude":45.4869,"longitude":-122.744},"002632":{"address":"1755 W Main League City, TX 77573","latitude":29.5025,"longitude":-95.1155},"002633":{"address":"6162 Meadowbrook Dr. Fort Worth, TX 76112","latitude":32.7458,"longitude":-97.2232},"002636":{"address":"12002 Elam Road Balch Springs, TX 75180","latitude":32.7191,"longitude":-96.6186},"002643":{"address":"10832 S Crossroads Dr Parker, CO 80138","latitude":39.5201,"longitude":-104.766},"002647":{"address":"1606 S Nappanee St Elkhart, IN 46516","latitude":41.6728,"longitude":-86.0029},"002649":{"address":"220 Spring Street Charleston, SC 29403","latitude":32.7874,"longitude":-79.9536},"002661":{"address":"708 Front St Toledo, OH 43605","latitude":41.6493,"longitude":-83.5217},"002665":{"address":"4340 Rocklin Rd Rocklin, CA 95677","latitude":38.7883,"longitude":-121.226},"002669":{"address":"640 Pacific Coast Hwy Seal Beach, CA 90740","latitude":33.7455,"longitude":-118.105},"002673":{"address":"816 E Front St Traverse City, MI 49686","latitude":44.7638,"longitude":-85.6043},"002674":{"address":"121 N. Mcdade Blvd. Glenolden, PA 19036","latitude":39.9063,"longitude":-75.2888},"002679":{"address":"1579 Morton St Franklin, IN 46131","latitude":39.4942,"longitude":-86.0644},"002681":{"address":"41450 Garfield Rd. Clinton Township, MI 48038","latitude":42.6014,"longitude":-82.9522},"002682":{"address":"951 S Roselle Rd Schaumburg, IL 60193","latitude":42.0101,"longitude":-88.0797},"002686":{"address":"3217 S Arlington Rd Akron, OH 44312","latitude":40.9843,"longitude":-81.4924},"002689":{"address":"3421 Center St Deer Park, TX 77536","latitude":29.6804,"longitude":-95.123},"002693":{"address":"444 N Bolingbrook Dr Bolingbrook, IL 60440","latitude":41.7102,"longitude":-88.0684},"002695":{"address":"2186 Jericho Turnpike Commack, NY 11725","latitude":40.8426,"longitude":-73.2866},"002697":{"address":"490 E Main Street Bay Shore, NY 11706","latitude":40.7279,"longitude":-73.2268},"002698":{"address":"4833 Nesconset Hwy Port Jefferson Station, NY 11776","latitude":40.9187,"longitude":-73.0525},"002700":{"address":"131 E. Orangethorpe Ave. Fullerton, CA 92832","latitude":33.8597,"longitude":-117.923},"002702":{"address":"3143 N Milwaukee Ave Chicago, IL 60618","latitude":41.9383,"longitude":-87.7223},"002703":{"address":"4402 W Glendale Glendale, AZ 85301","latitude":33.5386,"longitude":-112.154},"002706":{"address":"900 Sterlington Rd Monroe, LA 71203","latitude":32.5303,"longitude":-92.0797},"002709":{"address":"1360 Fordham Dr Virginia Beach, VA 23464","latitude":36.7987,"longitude":-76.1762},"002716":{"address":"3725 E Harry Wichita, KS 67218","latitude":37.6645,"longitude":-97.2922},"002722":{"address":"16020 Mapledale Blvd Tampa, FL 33624","latitude":28.0988,"longitude":-82.5028},"002737":{"address":"1300 John Barrow Rd Little Rock, AR 72205","latitude":34.7411,"longitude":-92.3727},"002743":{"address":"15055 Middle Belt Livonia, MI 48154","latitude":42.3961,"longitude":-83.3349},"002744":{"address":"5844 Alexis Rd Sylvania, OH 43560","latitude":41.716,"longitude":-83.6842},"002747":{"address":"7601 W 111th St Palos Hills, IL 60465","latitude":41.6894,"longitude":-87.8084},"002749":{"address":"929 Battlefield Blvd. N Chesapeake, VA 23320","latitude":36.7533,"longitude":-76.2472},"002750":{"address":"7510 Roosevelt Rd Forest Park, IL 60130","latitude":41.8645,"longitude":-87.8114},"002751":{"address":"8750 Elk Grove Blvd Elk Grove, CA 95624","latitude":38.4088,"longitude":-121.379},"002753":{"address":"701 West Pike St Goshen, IN 46526","latitude":41.5892,"longitude":-85.8457},"002754":{"address":"6741 Watt Ave North Highlands, CA 95660","latitude":38.6896,"longitude":-121.383},"002760":{"address":"974 Admiral Callaghan Ln Vallejo, CA 94591","latitude":38.134127,"longitude":-122.222321},"002762":{"address":"2928 E Michigan Ave Jackson, MI 49202","latitude":42.2552,"longitude":-84.368},"002763":{"address":"10360 Beach Blvd Stanton, CA 90680","latitude":33.8121,"longitude":-117.993},"002766":{"address":"6907 Highway 6 South Houston, TX 77083","latitude":29.7014,"longitude":-95.6435},"002769":{"address":"37317 Highway 26 Sandy, OR 97055","latitude":45.4012,"longitude":-122.28},"002775":{"address":"2200 Crain Hwy Waldorf, MD 20601","latitude":38.6507,"longitude":-76.8827},"002779":{"address":"8671 Ulmerton Rd Largo, FL 33771","latitude":27.8949,"longitude":-82.7591},"002780":{"address":"1176 N Belsay Rd Burton, MI 48509","latitude":43.0241,"longitude":-83.5949},"002787":{"address":"14554 W. Center Rd. Omaha, NE 68144","latitude":41.2342,"longitude":-96.1424},"002788":{"address":"1944 E Valley Pkwy Escondido, CA 92027","latitude":33.1373,"longitude":-117.053},"002798":{"address":"44 N Lake Havasu Ave Lake Havasu City, AZ 86403","latitude":34.475,"longitude":-114.345},"002804":{"address":"6805 W Wilkinson Blvd Belmont, NC 28012","latitude":35.2519,"longitude":-81.028},"002808":{"address":"11145 US Highway 15 501 Aberdeen, NC 28315","latitude":35.1552,"longitude":-79.4172},"002820":{"address":"4413 McMasters Ave Hannibal, MO 63401","latitude":39.7212,"longitude":-91.3925},"002821":{"address":"1527 E College Ave Normal, IL 61761","latitude":40.5099,"longitude":-88.957},"002822":{"address":"9798 Greenwell Springs Rd Baton Rouge, LA 70814","latitude":30.4884,"longitude":-91.0763},"002825":{"address":"4212 Wheaton Way Bremerton, WA 98310","latitude":47.604418,"longitude":-122.628871},"002828":{"address":"2545 Long Beach Blvd Long Beach, CA 90806","latitude":33.8037,"longitude":-118.19},"002832":{"address":"3507 W Hammer Lane Stockton, CA 95219","latitude":38.0216,"longitude":-121.361},"002834":{"address":"10 East Anthony Drive Champaign, IL 61820","latitude":40.1369,"longitude":-88.2427},"002835":{"address":"3211 N 108th St Omaha, NE 68164","latitude":41.288,"longitude":-96.081},"002836":{"address":"3224 S Wilmington St Raleigh, NC 27603","latitude":35.7361,"longitude":-78.651},"002837":{"address":"1590 S. Main Street Chelsea, MI 48118","latitude":42.2987,"longitude":-84.0251},"002838":{"address":"821 Coleman Blvd Mount Pleasant, SC 29464","latitude":32.7936,"longitude":-79.8651},"002842":{"address":"1940 Oceanside Blvd Oceanside, CA 92054","latitude":33.1942,"longitude":-117.355},"002851":{"address":"7126 FM 1960 Rd. E Humble, TX 77346","latitude":29.9979,"longitude":-95.168},"002856":{"address":"3234 Owen Road Fenton, MI 48430","latitude":42.7901,"longitude":-83.7356},"002863":{"address":"1800 E Woodlawn Rd Charlotte, NC 28209","latitude":35.1712,"longitude":-80.846},"002866":{"address":"2222 Green Bay Rd North Chicago, IL 60064","latitude":42.3187,"longitude":-87.8665},"002867":{"address":"1099 Rio Rancho Dr Rio Rancho, NM 87124","latitude":35.2386,"longitude":-106.657},"002869":{"address":"1714 Military Pkwy Mesquite, TX 75149","latitude":32.767517,"longitude":-96.623775},"002870":{"address":"104 FM 517 Rd W Dickinson, TX 77539","latitude":29.4483,"longitude":-95.0781},"002872":{"address":"8760 W 95th Street Hickory Hills, IL 60457","latitude":41.7185,"longitude":-87.8363},"002873":{"address":"7419 S Cass Ave Darien, IL 60561","latitude":41.7524,"longitude":-87.9733},"002875":{"address":"1681 Gause Blvd Slidell, LA 70458","latitude":30.2842,"longitude":-89.7511},"002879":{"address":"5575 N Jim Miller Rd Dallas, TX 75228","latitude":32.7927,"longitude":-96.7004},"002880":{"address":"4135 13th Ave, South Fargo, ND 58103","latitude":46.862,"longitude":-96.8505},"002882":{"address":"2526 Cherry Rd Rock Hill, SC 29732","latitude":34.9706,"longitude":-80.9904},"002883":{"address":"2038 N Saginaw Rd Midland, MI 48640","latitude":43.6415,"longitude":-84.2516},"002885":{"address":"1660 S Loop 35 Alvin, TX 77511","latitude":29.4085,"longitude":-95.2338},"002886":{"address":"5701 Broadway Galveston, TX 77551","latitude":29.2894,"longitude":-94.8312},"002887":{"address":"12223 N Cave Creek Rd Phoenix, AZ 85022","latitude":33.5977,"longitude":-112.037},"002888":{"address":"120 Pasadena Blvd Pasadena, TX 77506","latitude":29.7111,"longitude":-95.2015},"002890":{"address":"3917 S 42nd St Omaha, NE 68107","latitude":41.2211,"longitude":-95.9756},"002892":{"address":"647 W Main St Anoka, MN 55303","latitude":45.2074,"longitude":-93.4035},"002893":{"address":"915 North Greenwood Fort Smith, AR 72901","latitude":35.3857,"longitude":-94.4035},"002905":{"address":"733 E Huntington Dr Monrovia, CA 91016","latitude":34.1403,"longitude":-117.989},"002907":{"address":"945 Elmhurst Rd Des Plaines, IL 60016","latitude":42.0345,"longitude":-87.9403},"002913":{"address":"404 N Central Expressway McKinney, TX 75070","latitude":33.2013,"longitude":-96.638},"002919":{"address":"2491 S. State Route 291 Independence, MO 64057","latitude":39.0746,"longitude":-94.3785},"002921":{"address":"2752 Elm Road Warren, OH 44483","latitude":41.2595,"longitude":-80.7842},"002923":{"address":"6210 Winchester Rd Memphis, TN 38115","latitude":35.0501,"longitude":-89.8565},"002926":{"address":"4901 Gibson Blvd S.e. Albuquerque, NM 87108","latitude":35.0584,"longitude":-106.588},"002935":{"address":"27171 Oakmead Dr Perrysburg, OH 43551","latitude":41.5467,"longitude":-83.5961},"002936":{"address":"710 NW 37th Ave Miami, FL 33125","latitude":25.7796,"longitude":-80.2559},"002937":{"address":"20726 Harper Ave. Harper Woods, MI 48225","latitude":42.4468,"longitude":-82.9161},"002945":{"address":"916 S Us Highway 27 Saint Johns, MI 48879","latitude":42.9918,"longitude":-84.5468},"002952":{"address":"3840 Alexandria Mall Dr Alexandria, LA 71301","latitude":31.2721,"longitude":-92.4627},"002962":{"address":"429 S Indiana St Mooresville, IN 46158","latitude":39.6073,"longitude":-86.3745},"002965":{"address":"29180 23 Mile Rd New Baltimore, MI 48047","latitude":42.6739,"longitude":-82.8158},"002969":{"address":"5302 W Washington St. Indianapolis, IN 46241","latitude":39.753,"longitude":-86.2506},"002980":{"address":"1609 New Boston Rd Texarkana, TX 75501","latitude":33.4349,"longitude":-94.0602},"002981":{"address":"6261 Rufe Snow Drive Watauga, TX 76148","latitude":32.8595,"longitude":-97.2384},"002982":{"address":"9223 St Rte 14 Streetsboro, OH 44241","latitude":41.2389,"longitude":-81.3434},"002984":{"address":"27770 Santa Margarita Pkwy Mission Viejo, CA 92691","latitude":33.652,"longitude":-117.646},"002994":{"address":"6560 Roswell Rd Sandy Springs, GA 30328","latitude":33.935,"longitude":-84.3801},"002995":{"address":"2624 Cobb Pkwy SE Smyrna, GA 30080","latitude":33.8888,"longitude":-84.4746},"002998":{"address":"74 Stratford Dr. Bloomingdale, IL 60108","latitude":41.9516,"longitude":-88.12},"002999":{"address":"2040 Ruth St Sulphur, LA 70663","latitude":30.2192,"longitude":-93.3759},"003000":{"address":"5919 Stockton Blvd Sacramento, CA 95824","latitude":38.5194,"longitude":-121.44},"003026":{"address":"619 Colusa Ave Yuba City, CA 95991","latitude":39.1419,"longitude":-121.622},"003052":{"address":"5406 Whittier Blvd East Los Angeles, CA 90022","latitude":34.0197,"longitude":-118.154},"003056":{"address":"10722 E Whittier Blvd Whittier, CA 90606","latitude":33.99,"longitude":-118.064},"003069":{"address":"490 N Tustin St Orange, CA 92867","latitude":33.7947,"longitude":-117.836},"003073":{"address":"26631 Trabuco Road Mission Viejo, CA 92691","latitude":33.6294,"longitude":-117.666},"003074":{"address":"7545 Fallbrook Ave Canoga Park, CA 91307","latitude":34.208,"longitude":-118.624},"003075":{"address":"12503 E Alondra Blvd Norwalk, CA 90650","latitude":33.8879,"longitude":-118.066},"003093":{"address":"5467 E Del Amo Blvd Lakewood, CA 90713","latitude":33.847204,"longitude":-118.125824},"003105":{"address":"5502 Lincoln Ave Cypress, CA 90630","latitude":33.83162,"longitude":-118.036717},"003108":{"address":"103 S Rampart Blvd Los Angeles, CA 90057","latitude":34.0694,"longitude":-118.277},"003110":{"address":"8511 Westminster Ave Garden Grove, CA 92844","latitude":33.759469,"longitude":-117.980678},"003111":{"address":"16252 Harbor Blvd. Santa Ana, CA 92708","latitude":33.7271,"longitude":-117.92},"003114":{"address":"18100 Parthenia St Northridge, CA 91325","latitude":34.2286,"longitude":-118.528},"003116":{"address":"9061 Edinger Ave Westminster, CA 92683","latitude":33.730532,"longitude":-117.970853},"003120":{"address":"8972 Katella Ave Anaheim, CA 92804","latitude":33.8029,"longitude":-117.976},"003123":{"address":"241 E Valley Blvd Alhambra, CA 91801","latitude":34.0789,"longitude":-118.12},"003133":{"address":"11001 Atlantic Ave Lynwood, CA 90262","latitude":33.9304,"longitude":-118.184},"003135":{"address":"5395 Atlantic Ave Long Beach, CA 90805","latitude":33.8541,"longitude":-118.185},"003138":{"address":"14301 Pioneer Norwalk, CA 90650","latitude":33.9019,"longitude":-118.083},"003141":{"address":"1408 W Century Blvd Los Angeles, CA 90047","latitude":33.9454,"longitude":-118.301},"003144":{"address":"4416 Sepulveda Blvd Culver City, CA 90230","latitude":34.0032,"longitude":-118.407},"003147":{"address":"333 So Rosemead Pasadena, CA 91107","latitude":34.1407,"longitude":-118.074},"003148":{"address":"11007 Garvey Ave El Monte, CA 91733","latitude":34.063,"longitude":-118.035},"003150":{"address":"295 W Highland San Bernardino, CA 92405","latitude":34.1359,"longitude":-117.289},"003155":{"address":"2097 S Sheridan Denver, CO 80227","latitude":39.6793,"longitude":-105.054},"003156":{"address":"601 Meacham Rd Elk Grove Village, IL 60007","latitude":42.0076,"longitude":-88.0453},"003157":{"address":"1000 N Farnsworth Ave Aurora, IL 60506","latitude":41.7781,"longitude":-88.2822},"003159":{"address":"1140 Koeller Oshkosh, WI 54902","latitude":44.0088,"longitude":-88.5811},"003162":{"address":"4970 Highway 6 North Houston, TX 77084","latitude":29.8483,"longitude":-95.6454},"003163":{"address":"19305 S.w. Martinazzi Ave. Tualatin, OR 97062","latitude":45.381,"longitude":-122.76},"003164":{"address":"1815 Neuse Blvd New Bern, NC 28560","latitude":35.1108,"longitude":-77.0651},"003165":{"address":"728 E Prien Lake Rd Lake Charles, LA 70601","latitude":30.1981,"longitude":-93.21},"003168":{"address":"3121 Dickerson Pike Nashville, TN 37207","latitude":36.2316,"longitude":-86.7586},"003171":{"address":"3140 G Street Merced, CA 95340","latitude":37.319,"longitude":-120.469},"003176":{"address":"570 Sunrise Highway Rockville Centre, NY 11570","latitude":40.6569,"longitude":-73.6314},"003177":{"address":"996 Hempstead Turnpike Franklin Square, NY 11010","latitude":40.7077,"longitude":-73.6771},"003178":{"address":"325 Rockaway Turnpike Lawrence, NY 11559","latitude":40.626,"longitude":-73.7364},"003179":{"address":"1709 Merrick Rd Merrick, NY 11566","latitude":40.654,"longitude":-73.5588},"003180":{"address":"1650 Jericho Turnpike New Hyde Park, NY 11040","latitude":40.7338,"longitude":-73.6787},"003186":{"address":"8220 S. Quebec Englewood, CO 80112","latitude":39.5675,"longitude":-104.904},"003187":{"address":"17873 SW Mcewan Road Tigard, OR 97224","latitude":45.3958,"longitude":-122.744},"003190":{"address":"25544 Gratiot Roseville, MI 48066","latitude":42.4839,"longitude":-82.9447},"003192":{"address":"1153 S. State Rd Davison, MI 48423","latitude":43.0156,"longitude":-83.5171},"003200":{"address":"172-12 Northern Blvd. Flushing, NY 11358","latitude":40.7575,"longitude":-73.7935},"003203":{"address":"3950 Sunrise Hwy Seaford, NY 11783","latitude":40.6746,"longitude":-73.4867},"003205":{"address":"4811 Chiles Road Davis, CA 95618","latitude":38.551,"longitude":-121.694},"003207":{"address":"3799 Rosedale Highway Bakersfield, CA 93308","latitude":35.3829,"longitude":-119.05},"003212":{"address":"6001 Beach Blvd. Buena Park, CA 90621","latitude":33.8732,"longitude":-117.998},"003216":{"address":"1960 Kapiolani Blvd Honolulu, HI 96826","latitude":21.2898,"longitude":-157.833},"003218":{"address":"2901 Monte Vista Blvd NE Albuquerque, NM 87106","latitude":35.0815,"longitude":-106.613},"003219":{"address":"618 E End Blvd S Marshall, TX 75670","latitude":32.5388,"longitude":-94.3488},"003227":{"address":"1802 South 7th Street Phoenix, AZ 85034","latitude":33.431,"longitude":-112.066},"003229":{"address":"1061 Rt 73 Pennsauken, NJ 08110","latitude":39.9904,"longitude":-75.026},"003233":{"address":"7804 E Admiral Place Tulsa, OK 74115","latitude":36.1605,"longitude":-95.8899},"003235":{"address":"2817 Lincoln Way East Mishawaka, IN 46544","latitude":41.6619,"longitude":-86.1339},"003236":{"address":"2924 Frontage Rd Warsaw, IN 46580","latitude":41.2372,"longitude":-85.8165},"003237":{"address":"5021 N. Stateline Road Texarkana, TX 75503","latitude":33.4662,"longitude":-94.0435},"003239":{"address":"1420 Ary Lane Dixon, CA 95620","latitude":38.4576,"longitude":-121.842},"003253":{"address":"3031 Charleston Town Cntr Charleston, WV 25389","latitude":38.353184,"longitude":-81.638565},"003254":{"address":"2700 Miamisburg Centerville Rd. Dayton, OH 45459","latitude":39.634059,"longitude":-84.220326},"003271":{"address":"406 S. Thompson Springdale, AR 72764","latitude":36.1819,"longitude":-94.139},"003276":{"address":"1720 Parkview Drive Chesapeake, VA 23320","latitude":36.7915,"longitude":-76.2395},"003277":{"address":"4506 Capital Blvd Raleigh, NC 27604","latitude":35.84488,"longitude":-78.579476},"003279":{"address":"3821 Western Blvd Raleigh, NC 27606","latitude":35.7844,"longitude":-78.6895},"003280":{"address":"604 S 8th Street Rogers, AR 72756","latitude":36.3287,"longitude":-94.126},"003286":{"address":"7415 NE Martin Luther King Blvd Portland, OR 97211","latitude":45.5767,"longitude":-122.661},"003289":{"address":"5310 S. Scatterfield Rd. Anderson, IN 46013","latitude":40.0612,"longitude":-85.6524},"003290":{"address":"4539 S. Telegraph Rd Dearborn Heights, MI 48125","latitude":42.2767,"longitude":-83.27},"003291":{"address":"24024 W 9 Mile Rd Southfield, MI 48033","latitude":42.4577,"longitude":-83.2793},"003292":{"address":"1435 N Main St Clawson, MI 48017","latitude":42.5463,"longitude":-83.1473},"003293":{"address":"27349 Grand River Ave. Redford, MI 48240","latitude":42.4397,"longitude":-83.3163},"003294":{"address":"8956 Warren Dearborn, MI 48126","latitude":42.3448,"longitude":-83.1569},"003296":{"address":"409 N Main St Plymouth, MI 48170","latitude":42.3768,"longitude":-83.4611},"003297":{"address":"27067 Telegraph Road Flat Rock, MI 48134","latitude":42.1081,"longitude":-83.2854},"003302":{"address":"30 Carothers Rd Newport, KY 41071","latitude":39.0849,"longitude":-84.4806},"003303":{"address":"311 S. Dixie Blvd. Radcliff, KY 40160","latitude":37.8363,"longitude":-85.9357},"003306":{"address":"2545 W. Seventh St Saint Paul, MN 55116","latitude":44.901025,"longitude":-93.17251},"003307":{"address":"516 N Broadway Rochester, MN 55906","latitude":44.0288,"longitude":-92.4626},"003308":{"address":"3210 Southdale Circle Edina, MN 55435","latitude":44.8823,"longitude":-93.32},"003310":{"address":"1931 Minnehaha Minneapolis, MN 55404","latitude":44.9631,"longitude":-93.2444},"003314":{"address":"565 No Snelling Saint Paul, MN 55104","latitude":44.9582,"longitude":-93.1673},"003324":{"address":"9449 Colerain Ave Cincinnati, OH 45251","latitude":39.243,"longitude":-84.5952},"003329":{"address":"1889 West Perimeter Road Roseville, MN 55113","latitude":45.012202,"longitude":-93.179532},"003333":{"address":"9230 Lyndale Ave South Bloomington, MN 55420","latitude":44.8363,"longitude":-93.2892},"003335":{"address":"6325 E Main St Reynoldsburg, OH 43068","latitude":39.9546,"longitude":-82.8265},"003339":{"address":"5500 Colerain Ave Cincinnati, OH 45239","latitude":39.1912,"longitude":-84.5709},"003340":{"address":"3402 Cleveland Ave Columbus, OH 43224","latitude":40.0379,"longitude":-82.9619},"003362":{"address":"8602 Dixie Hwy Louisville, KY 40258","latitude":38.1269,"longitude":-85.8512},"003370":{"address":"425 W Broadway Minneapolis, MN 55411","latitude":44.9989,"longitude":-93.2852},"003371":{"address":"215 East Lake Street Minneapolis, MN 55408","latitude":44.9481,"longitude":-93.2731},"003372":{"address":"1965 County Road D Maplewood, MN 55109","latitude":45.036,"longitude":-93.0192},"003376":{"address":"4643 Dixie Hwy Louisville, KY 40216","latitude":38.1758,"longitude":-85.8211},"003378":{"address":"5532 Brooklyn Blvd Brooklyn Center, MN 55429","latitude":45.0563,"longitude":-93.3234},"003379":{"address":"291 Highway 10 NE Blaine, MN 55434","latitude":45.129,"longitude":-93.2573},"003384":{"address":"1552 North State St Greenfield, IN 46140","latitude":39.8059,"longitude":-85.7703},"003386":{"address":"4337 W Vienna Road Clio, MI 48420","latitude":43.1771,"longitude":-83.7669},"003393":{"address":"120 N Joe B. Hall Ave. Shepherdsville, KY 40165","latitude":37.9902,"longitude":-85.7067},"003394":{"address":"1167 Columbus Pike Delaware, OH 43015","latitude":40.2733,"longitude":-83.0703},"003404":{"address":"2169 Roswell Rd Marietta, GA 30062","latitude":33.9692,"longitude":-84.4893},"003408":{"address":"2081 Savoy Drive Chamblee, GA 30341","latitude":33.9198,"longitude":-84.3038},"003421":{"address":"1120 Kildaire Farm Rd Cary, NC 27511","latitude":35.7697,"longitude":-78.7821},"003424":{"address":"3098 S Dixie Hwy Erlanger, KY 41018","latitude":39.0214,"longitude":-84.5889},"003428":{"address":"12930 Central Southeast Albuquerque, NM 87123","latitude":35.0686,"longitude":-106.504},"003431":{"address":"4195 N Academy Colorado Springs, CO 80918","latitude":38.8926,"longitude":-104.757},"003434":{"address":"411 E First Street Santa Ana, CA 92701","latitude":33.7457,"longitude":-117.864},"003440":{"address":"2004 West End Ave Nashville, TN 37203","latitude":36.151273,"longitude":-86.800025},"003441":{"address":"1410 Brick Church Pike Nashville, TN 37207","latitude":36.2052,"longitude":-86.7783},"003442":{"address":"4300 Harding Rd Nashville, TN 37205","latitude":36.1276,"longitude":-86.8444},"003447":{"address":"1804 N Jackson Street Tullahoma, TN 37388","latitude":35.3824,"longitude":-86.2296},"003450":{"address":"5414 Newcut Rd Louisville, KY 40214","latitude":38.1498,"longitude":-85.7765},"003452":{"address":"541 S Highway 49 Jackson, CA 95642","latitude":38.3429,"longitude":-120.768},"003453":{"address":"917 S Beacon Grand Haven, MI 49417","latitude":43.0523,"longitude":-86.2211},"003466":{"address":"4330 Elvis Presley Blvd Memphis, TN 38116","latitude":35.0308,"longitude":-90.0247},"003468":{"address":"1701 Winkler St Wilkesboro, NC 28697","latitude":36.150678,"longitude":-81.190111},"003472":{"address":"1680 E Market St Harrisonburg, VA 22801","latitude":38.4341,"longitude":-78.8455},"003480":{"address":"1465 N Main St Suffolk, VA 23434","latitude":36.7492,"longitude":-76.5834},"003481":{"address":"7516 N 30th Street Omaha, NE 68112","latitude":41.3284,"longitude":-95.9584},"003482":{"address":"352 E Brown Rd Mesa, AZ 85201","latitude":33.4364,"longitude":-111.823},"003483":{"address":"604 S State Street Big Rapids, MI 49307","latitude":43.6922,"longitude":-85.4839},"003485":{"address":"627 N. Escondido Blvd. Escondido, CA 92025","latitude":33.1269,"longitude":-117.089},"003486":{"address":"864 Nogales Walnut, CA 91789","latitude":34.0267,"longitude":-117.895},"003487":{"address":"4248 Dale Blvd Dale City, VA 22193","latitude":38.6465,"longitude":-77.3372},"003488":{"address":"4422 Kukui Grove St Lihue, HI 96766","latitude":21.9718,"longitude":-159.378},"003493":{"address":"60 Smithfield Blvd Plattsburgh, NY 12901","latitude":44.702499,"longitude":-73.491682},"003496":{"address":"85-752 Farrington Hwy Waianae, HI 96792","latitude":21.448,"longitude":-158.189},"003499":{"address":"1700 Main Street Morro Bay, CA 93442","latitude":35.3794,"longitude":-120.855},"003527":{"address":"21900 Woodward Avenue Ferndale, MI 48220","latitude":42.4539,"longitude":-83.1295},"003532":{"address":"3200 Monroe Hwy Pineville, LA 71360","latitude":31.3622,"longitude":-92.4116},"003535":{"address":"1380 N Academy Blvd Colorado Springs, CO 80909","latitude":38.8527,"longitude":-104.758},"003536":{"address":"985 Lawson Way Woodburn, OR 97071","latitude":45.1502,"longitude":-122.878},"003541":{"address":"110 Highway 260 Payson, AZ 85541","latitude":34.2409,"longitude":-111.322},"003543":{"address":"1928 E Avenida De Los Arboles Thousand Oaks, CA 91362","latitude":34.211,"longitude":-118.843},"003544":{"address":"95 Daily Dr Camarillo, CA 93010","latitude":34.2218,"longitude":-119.068},"003548":{"address":"1470 Coors Rd NW Albuquerque, NM 87121","latitude":35.1003,"longitude":-106.706},"003552":{"address":"70 Kent Towne Market Chester, MD 21619","latitude":38.9749,"longitude":-76.2795},"003560":{"address":"532 W Hammer Lane Stockton, CA 95210","latitude":38.0207,"longitude":-121.319},"003563":{"address":"2411 W US Highway 90 Lake City, FL 32055","latitude":30.1796,"longitude":-82.6717},"003564":{"address":"1726 University Ave Oxford, MS 38655","latitude":34.3626,"longitude":-89.5115},"003566":{"address":"601 S Mason Rd Katy, TX 77450","latitude":29.7745,"longitude":-95.7513},"003570":{"address":"11101 Woodley Avenue Granada Hills, CA 91344","latitude":34.2723,"longitude":-118.485},"003581":{"address":"5005 Main Street The Colony, TX 75056","latitude":33.0814,"longitude":-96.8932},"003583":{"address":"3400 Brooks Street Missoula, MT 59801","latitude":46.8394,"longitude":-114.031},"003584":{"address":"32940 Michigan Ave Wayne, MI 48184","latitude":42.2836,"longitude":-83.3639},"003590":{"address":"1670 General Booth Blvd Virginia Beach, VA 23454","latitude":36.7825,"longitude":-76.0011},"003599":{"address":"18750 NW 67th Ave Hialeah, FL 33015","latitude":25.9432,"longitude":-80.3072},"003601":{"address":"1719 Elton Rd Jennings, LA 70546","latitude":30.2413,"longitude":-92.6639},"003602":{"address":"2000 W. US Hwy 76 Branson, MO 65616","latitude":36.6405,"longitude":-93.258},"003604":{"address":"629 Highway 6265 North Harrison, AR 72601","latitude":36.2497,"longitude":-93.1181},"003607":{"address":"34117 Pacific Coast Hwy Dana Point, CA 92629","latitude":33.466,"longitude":-117.704},"003612":{"address":"450 W South Boulder Rd Lafayette, CO 80026","latitude":39.9868,"longitude":-105.095},"003613":{"address":"1400 Busse Rd Elk Grove Village, IL 60007","latitude":42.0056,"longitude":-87.9603},"003617":{"address":"4857 Fashion Square Mall  FC-8 Saginaw, MI 48604","latitude":43.476662,"longitude":-83.973183},"003620":{"address":"201 E Main Street Owosso, MI 48867","latitude":42.9978,"longitude":-84.169},"003622":{"address":"2235 NW 9th Street Corvallis, OR 97330","latitude":44.5908,"longitude":-123.254},"003623":{"address":"1021 S Cass St Corinth, MS 38834","latitude":34.9232,"longitude":-88.5159},"003630":{"address":"1700 E Ash St Globe, AZ 85501","latitude":33.3918,"longitude":-110.765},"003631":{"address":"375 S Lovekin Blvd Blythe, CA 92225","latitude":33.6053,"longitude":-114.606},"003635":{"address":"3320 Saint Joe Center Rd Fort Wayne, IN 46835","latitude":41.1335,"longitude":-85.1004},"003638":{"address":"1 CNN Center Atlanta, GA 30303","latitude":33.75843,"longitude":-84.395042},"003639":{"address":"209 Norfleet Dr Senatobia, MS 38668","latitude":34.6246,"longitude":-89.9536},"003641":{"address":"4510 Salt Lake Blvd Honolulu, HI 96818","latitude":21.3641,"longitude":-157.928},"003648":{"address":"3887 Highway 138 SE Stockbridge, GA 30281","latitude":33.554,"longitude":-84.2643},"003652":{"address":"2420 N Druid Hills Rd NE Atlanta, GA 30329","latitude":33.8269,"longitude":-84.3257},"003663":{"address":"2031 E Bearss Ave Tampa, FL 33613","latitude":28.0802,"longitude":-82.4355},"003668":{"address":"429 Ponce De Leon Ave Atlanta, GA 30308","latitude":33.7728,"longitude":-84.373},"003669":{"address":"3595 Biscayne Blvd Miami, FL 33137","latitude":25.8103,"longitude":-80.1893},"003670":{"address":"9180 Whittier Blvd Pico Rivera, CA 90660","latitude":34.0001,"longitude":-118.082},"003673":{"address":"2300 Barrett Ave Richmond, CA 94804","latitude":37.9383,"longitude":-122.347},"003674":{"address":"715 W. Champaign Street Rantoul, IL 61866","latitude":40.307848,"longitude":-88.173151},"003677":{"address":"6800 Bardstown Rd. Louisville, KY 40291","latitude":38.1472,"longitude":-85.5865},"003680":{"address":"150 W. Parker Rd. Plano, TX 75075","latitude":33.0389,"longitude":-96.7078},"003684":{"address":"10580 SW 8th St Miami, FL 33174","latitude":25.7612,"longitude":-80.3672},"003686":{"address":"5550 Martin Luther King Blvd Sacramento, CA 95820","latitude":38.5253,"longitude":-121.465},"003692":{"address":"5303 San Mateo Blvd NE Albuquerque, NM 87109","latitude":35.1424,"longitude":-106.587},"003700":{"address":"2121 W Laurel Eunice, LA 70535","latitude":30.4948,"longitude":-92.4389},"003701":{"address":"6521 Fairview Ave Boise, ID 83704","latitude":43.619,"longitude":-116.263},"003714":{"address":"100 Kamehameha Hwy Kahului, HI 96732","latitude":20.8886,"longitude":-156.465},"003717":{"address":"6151 Hwy 278 NW Covington, GA 30014","latitude":33.6053,"longitude":-83.8748},"003720":{"address":"10230 Midlothian Turnpike Richmond, VA 23235","latitude":37.5071,"longitude":-77.5862},"003726":{"address":"3946 Hempstead Turnpike Levittown, NY 11756","latitude":40.7253,"longitude":-73.4902},"003727":{"address":"15531 Warwick Blvd Newport News, VA 23608","latitude":37.1586,"longitude":-76.5571},"003728":{"address":"3380 Lehigh Street Allentown, PA 18103","latitude":40.5547,"longitude":-75.4904},"003729":{"address":"825 W 3rd Ave Spokane, WA 99201","latitude":47.6533,"longitude":-117.425},"003732":{"address":"1339 Harrisburg Pike Columbus, OH 43223","latitude":39.9309,"longitude":-83.0505},"003733":{"address":"5811 W Broad St Richmond, VA 23230","latitude":37.591,"longitude":-77.5052},"003734":{"address":"10050 Highway 92 Woodstock, GA 30188","latitude":34.0858,"longitude":-84.5209},"003742":{"address":"1603 S Roane St Harriman, TN 37748","latitude":35.9129,"longitude":-84.5814},"003743":{"address":"695 John C Calhoun Dr Orangeburg, SC 29115","latitude":33.491,"longitude":-80.8547},"003751":{"address":"1100 Albert Pike Hot Springs, AR 71913","latitude":34.494,"longitude":-93.081},"003753":{"address":"198 N Route 73 West Berlin, NJ 08091","latitude":39.8057,"longitude":-74.932},"003754":{"address":"1298 S 11th St Niles, MI 49120","latitude":41.8127,"longitude":-86.2486},"003755":{"address":"140 River Bend Dr Charlottesville, VA 22901","latitude":38.0327,"longitude":-78.4553},"003757":{"address":"1700 East Ohio St Clinton, MO 64735","latitude":38.3657,"longitude":-93.7493},"003758":{"address":"1191 N. U.S. Highway 31 Petoskey, MI 49770","latitude":45.3899,"longitude":-84.9172},"003759":{"address":"1801 Watt Ave Sacramento, CA 95825","latitude":38.5977,"longitude":-121.384},"003768":{"address":"3818 State Highway 119 Longmont, CO 80501","latitude":40.1604,"longitude":-104.983},"003773":{"address":"2456 Mcmullen Booth Rd Clearwater, FL 33759","latitude":28.0119,"longitude":-82.7086},"003777":{"address":"1919 W 21st St N Wichita, KS 67203","latitude":37.7226,"longitude":-97.3619},"003778":{"address":"412 E 4th Ave Hutchinson, KS 67501","latitude":38.0575,"longitude":-97.9232},"003779":{"address":"403 E Main Street Cartersville, GA 30121","latitude":34.1669,"longitude":-84.7879},"003781":{"address":"707 Scioto St Urbana, OH 43078","latitude":40.1068,"longitude":-83.7372},"003782":{"address":"25 Rancho Rd Thousand Oaks, CA 91360","latitude":34.1781,"longitude":-118.858},"003783":{"address":"21090 Haggerty Rd. Novi, MI 48375","latitude":42.4414,"longitude":-83.4345},"003786":{"address":"11257 Roger Bacon Dr Reston, VA 20190","latitude":38.9511,"longitude":-77.3344},"003790":{"address":"2230 North Rock Rd Wichita, KS 67226","latitude":37.724,"longitude":-97.2443},"003791":{"address":"17565 E Bagley Rd. Middleburg Heights, OH 44130","latitude":41.3715,"longitude":-81.8233},"003798":{"address":"3377 West State Boise, ID 83703","latitude":43.6373,"longitude":-116.231},"003799":{"address":"1811 N Knoxville Ave Peoria, IL 61604","latitude":40.7091,"longitude":-89.5944},"003804":{"address":"557 Aurora Rd Macedonia, OH 44056","latitude":41.3143,"longitude":-81.5188},"003805":{"address":"2140 E State Route 89-A Cottonwood, AZ 86326","latitude":34.7218,"longitude":-112.002},"003818":{"address":"877 Bald Hill Rd Warwick, RI 02886","latitude":41.7147,"longitude":-71.4886},"003821":{"address":"9382 Madison Ave Orangevale, CA 95662","latitude":38.6714,"longitude":-121.203},"003824":{"address":"987 Thornton Rd Lithia Springs, GA 30122","latitude":33.779,"longitude":-84.607},"003825":{"address":"360 Howe Ave Cuyahoga Falls, OH 44221","latitude":41.1189,"longitude":-81.4814},"003827":{"address":"5230 George Washington Mem Hwy Grafton, VA 23692","latitude":37.1576,"longitude":-76.4624},"003829":{"address":"422 East 47th South Wichita, KS 67216","latitude":37.6082,"longitude":-97.3315},"003831":{"address":"120 Lincoln Ave Charleston, IL 61920","latitude":39.4841,"longitude":-88.1796},"003832":{"address":"145 North Avenue Glendale Heights, IL 60137","latitude":41.9022,"longitude":-88.084},"003834":{"address":"21182 Salmon Run Mall Loop W., Box 204 Watertown, NY 13601","latitude":43.978391,"longitude":-75.952937},"003836":{"address":"3860 S. State Rd. Ann Arbor, MI 48108","latitude":42.2309,"longitude":-83.7398},"003837":{"address":"3895 Mission Ave Oceanside, CA 92054","latitude":33.2274,"longitude":-117.327},"003838":{"address":"1990 Ostrems Way San Bernardino, CA 92407","latitude":34.1618,"longitude":-117.334},"003841":{"address":"481 Highway 53 E Calhoun, GA 30701","latitude":34.4755,"longitude":-84.9285},"003845":{"address":"3511 W Chestnut Expy. Springfield, MO 65802","latitude":37.2127,"longitude":-93.3498},"003846":{"address":"226 Bullsboro Dr Newnan, GA 30263","latitude":33.391,"longitude":-84.771},"003850":{"address":"5322 Oaklawn Blvd Prince George, VA 23875","latitude":37.2594,"longitude":-77.3273},"003851":{"address":"3340 South Campbell Springfield, MO 65807","latitude":37.1537,"longitude":-93.2951},"003855":{"address":"2810 N Jefferson St. Huntington, IN 46750","latitude":40.8987,"longitude":-85.512},"003856":{"address":"917 N Cass St Wabash, IN 46992","latitude":40.8111,"longitude":-85.8337},"003857":{"address":"6211 Stellhorn Rd Fort Wayne, IN 46815","latitude":41.1219,"longitude":-85.062},"003858":{"address":"1839 Beall Avenue Wooster, OH 44691","latitude":40.8222,"longitude":-81.9338},"003859":{"address":"565 Bankhead Hwy Carrollton, GA 30117","latitude":33.5868,"longitude":-85.0581},"003860":{"address":"2225 S Cicero Avenue Cicero, IL 60804","latitude":41.8495,"longitude":-87.7439},"003861":{"address":"10749 Park Blvd Seminole, FL 33772","latitude":27.8399,"longitude":-82.7888},"003863":{"address":"1700 N Morley Moberly, MO 65270","latitude":39.4393,"longitude":-92.4326},"003864":{"address":"7535 N Harlem Ave Niles, IL 60714","latitude":42.0184,"longitude":-87.8062},"003865":{"address":"45201 Schoenherr Rd. Utica, MI 48315","latitude":42.6288,"longitude":-82.9938},"003871":{"address":"11206 Preston Hwy Louisville, KY 40229","latitude":38.0865,"longitude":-85.6685},"003874":{"address":"2549 S Ferdon Blvd Crestview, FL 32536","latitude":30.7336,"longitude":-86.5659},"003877":{"address":"1509 E Tipton Street Seymour, IN 47274","latitude":38.9585,"longitude":-85.8665},"003879":{"address":"4081 Route 31/I481 Clay, NY 13041","latitude":43.188282,"longitude":-76.224873},"003880":{"address":"1824 Gulf To Bay Blvd Clearwater, FL 33765","latitude":27.9609,"longitude":-82.7616},"003881":{"address":"2995 Cook Road West Branch, MI 48661","latitude":44.2488,"longitude":-84.2249},"003883":{"address":"628 N Main St Bluffton, IN 46714","latitude":40.7461,"longitude":-85.1701},"003889":{"address":"4880 Lower Roswell Rd Marietta, GA 30068","latitude":33.9661,"longitude":-84.4107},"003897":{"address":"5215 Lomas NE Albuquerque, NM 87110","latitude":35.0876,"longitude":-106.587},"003898":{"address":"357 W. Atlantic Blvd Pompano Beach, FL 33060","latitude":26.2318,"longitude":-80.1286},"003899":{"address":"1910 South Horner Blvd Sanford, NC 27330","latitude":35.4649,"longitude":-79.155},"003904":{"address":"2222 Barranca Pkwy Irvine, CA 92606","latitude":33.6995,"longitude":-117.835},"003906":{"address":"2825 S Glenstone Ave.  Suite VC5 Springfield, MO 65804","latitude":37.162582,"longitude":-93.265195},"003907":{"address":"4651 Mack Rd Sacramento, CA 95823","latitude":38.4748,"longitude":-121.448},"003909":{"address":"3845 Plaza Dr Oceanside, CA 92056","latitude":33.182368,"longitude":-117.291568},"003915":{"address":"7820 E State Route 69 Prescott Valley, AZ 86314","latitude":34.5861,"longitude":-112.329},"003918":{"address":"12555 State Rd. 535 Orlando, FL 32836","latitude":28.3817,"longitude":-81.5037},"003919":{"address":"1840 Cliff Dr Santa Barbara, CA 93109","latitude":34.4017,"longitude":-119.722},"003921":{"address":"255 Garrisonville Rd Stafford, VA 22554","latitude":38.474,"longitude":-77.4174},"003922":{"address":"2267 W Highway 70 Thatcher, AZ 85552","latitude":32.8393,"longitude":-109.738},"003924":{"address":"977 Brookway Blvd Brookhaven, MS 39601","latitude":31.5786,"longitude":-90.4678},"003925":{"address":"600 S. Gloster St Tupelo, MS 38801","latitude":34.2483,"longitude":-88.7163},"003927":{"address":"3652 W Hillsboro Blvd Deerfield Beach, FL 33442","latitude":26.3175,"longitude":-80.1559},"003929":{"address":"14231 Nicollet Ave Burnsville, MN 55337","latitude":44.7455,"longitude":-93.2782},"003936":{"address":"808 S Walnut St Starke, FL 32091","latitude":29.9366,"longitude":-82.1124},"003940":{"address":"2437 Lewisville Clemmons Rd Clemmons, NC 27012","latitude":36.0319,"longitude":-80.383},"003942":{"address":"3056 Ross Clark Cir Dothan, AL 36301","latitude":31.2254,"longitude":-85.4319},"003943":{"address":"2055 W Martin Luther King Blvd Fayetteville, AR 72701","latitude":36.0555,"longitude":-94.1891},"003944":{"address":"608 W Lodi Ave Lodi, CA 95240","latitude":38.1299,"longitude":-121.282},"003955":{"address":"5503 S Semoran Blvd. Orlando, FL 32822","latitude":28.4831,"longitude":-81.3098},"003958":{"address":"2155 Pulaski Hwy Edgewood, MD 21040","latitude":39.436,"longitude":-76.3077},"003968":{"address":"957 N Buckner Derby, KS 67037","latitude":37.5531,"longitude":-97.2717},"003969":{"address":"1405 Smithville Highway McMinnville, TN 37110","latitude":35.703,"longitude":-85.7814},"003974":{"address":"100 Richmond St. Painesville, OH 44077","latitude":41.7252,"longitude":-81.2474},"003975":{"address":"74-5620 Palani Rd Kailua Kona, HI 96740","latitude":19.6432,"longitude":-155.996},"003984":{"address":"829 E Highway 60 Monett, MO 65708","latitude":36.9136,"longitude":-93.9135},"003985":{"address":"1201 W Will Rogers Blvd Claremore, OK 74017","latitude":36.3158,"longitude":-95.6241},"003988":{"address":"1649 W 9000 South West Jordan, UT 84088","latitude":40.5875,"longitude":-111.938},"003990":{"address":"18718 Fort St Riverview, MI 48192","latitude":42.1717,"longitude":-83.1897},"003991":{"address":"2990 Main Street Susanville, CA 96130","latitude":40.4058,"longitude":-120.633},"003994":{"address":"1455 Gilmore Ave Winona, MN 55987","latitude":44.0487,"longitude":-91.6751},"003996":{"address":"2474 S Orange Ave. Orlando, FL 32806","latitude":28.5149,"longitude":-81.3765},"003997":{"address":"7910 Rogers Ave Fort Smith, AR 72903","latitude":35.3494,"longitude":-94.3437},"003998":{"address":"3003 Alma Hwy Van Buren, AR 72956","latitude":35.4441,"longitude":-94.3261},"004001":{"address":"639 N 13th St Decatur, IN 46733","latitude":40.8354,"longitude":-84.9381},"004002":{"address":"1045 Sugar Creek Charlotte, NC 28213","latitude":35.275094,"longitude":-80.793772},"004003":{"address":"1126 W. 7th St. Auburn, IN 46706","latitude":41.3671,"longitude":-85.0785},"004005":{"address":"1301 S Washington St Grand Forks, ND 58201","latitude":47.909,"longitude":-97.0445},"004006":{"address":"551 William Floyd Parkway Shirley, NY 11967","latitude":40.8001,"longitude":-72.8662},"004010":{"address":"2050 S Townsend Montrose, CO 81401","latitude":38.4639,"longitude":-107.866},"004012":{"address":"3120 James Sanders Blvd Paducah, KY 42001","latitude":37.0791,"longitude":-88.684},"004014":{"address":"14000 Livernois Detroit, MI 48238","latitude":42.3919,"longitude":-83.1394},"004024":{"address":"62 Tallmadge Circle Tallmadge, OH 44278","latitude":41.1019,"longitude":-81.4397},"004025":{"address":"945 Arsenal St Watertown, NY 13601","latitude":43.9765,"longitude":-75.9325},"004026":{"address":"1906 North Cobb Pkwy Kennesaw, GA 30152","latitude":33.9996,"longitude":-84.5887},"004030":{"address":"347 Patteson Dr Morgantown, WV 26505","latitude":39.6512,"longitude":-79.9699},"004033":{"address":"4425 S White Mountain Road Show Low, AZ 85901","latitude":34.2102,"longitude":-110.024},"004035":{"address":"6420 Coventry Way Clinton, MD 20735","latitude":38.7825,"longitude":-76.8964},"004036":{"address":"3455 Commercial St SE Salem, OR 97302","latitude":44.9057,"longitude":-123.043},"004039":{"address":"2219 Highway 10 Saint Paul, MN 55112","latitude":45.0968,"longitude":-93.194},"004041":{"address":"2104 Crockett Palestine, TX 75801","latitude":31.736,"longitude":-95.607},"004042":{"address":"2249 East Sunshine Springfield, MO 65804","latitude":37.1816,"longitude":-93.2516},"004043":{"address":"2939 Harrison Ave Butte, MT 59701","latitude":45.9815,"longitude":-112.508},"004046":{"address":"993 Graham Rd. Cuyahoga Falls, OH 44221","latitude":41.164,"longitude":-81.4775},"004047":{"address":"1443 W Locust Street Davenport, IA 52804","latitude":41.538,"longitude":-90.5957},"004051":{"address":"5225 E Colfax Ave Denver, CO 80220","latitude":39.7404,"longitude":-104.926},"004054":{"address":"4675 Ming Ave. Bakersfield, CA 93309","latitude":35.3393,"longitude":-119.055},"004062":{"address":"509 West 500 South Bountiful, UT 84010","latitude":40.8841,"longitude":-111.893},"004066":{"address":"8711 N Knoxville Peoria, IL 61615","latitude":40.7934,"longitude":-89.606},"004069":{"address":"221 Dolson Ave Middletown, NY 10940","latitude":41.4251,"longitude":-74.4283},"004071":{"address":"94-050 Farrington Hwy Waipahu, HI 96797","latitude":21.377,"longitude":-158.026},"004072":{"address":"7192 Kalanianaole Hwy Honolulu, HI 96825","latitude":21.2766,"longitude":-157.705},"004077":{"address":"2660 Olive Hwy Oroville, CA 95966","latitude":39.505,"longitude":-121.543},"004078":{"address":"7911 S Broadway Littleton, CO 80122","latitude":39.5723,"longitude":-104.989},"004084":{"address":"7337 N Alger Rd Alma, MI 48801","latitude":43.3982,"longitude":-84.6674},"004091":{"address":"1859 Marietta Highway Canton, GA 30114","latitude":34.2218,"longitude":-84.5051},"004092":{"address":"499 Franklin Mills Circle Philadelphia, PA 19154","latitude":40.0877,"longitude":-74.9653},"004097":{"address":"826 Highway 27 E Albemarle, NC 28001","latitude":35.3475,"longitude":-80.1668},"004100":{"address":"102 Franks Dr Madison, IN 47250","latitude":38.776,"longitude":-85.3869},"004101":{"address":"195 Marianno Bishop Blvd Fall River, MA 02721","latitude":41.6754,"longitude":-71.1629},"004108":{"address":"8411 Hampton Blvd Norfolk, VA 23505","latitude":36.9299,"longitude":-76.318},"004109":{"address":"1537 Highway 138 SE Conyers, GA 30013","latitude":33.6493,"longitude":-84.0106},"004115":{"address":"1201 North State St Ukiah, CA 95482","latitude":39.1661,"longitude":-123.211},"004119":{"address":"2010 Nut Tree Road Vacaville, CA 95687","latitude":38.3516,"longitude":-121.952},"004120":{"address":"1560 S.w. Wanamaker Rd Topeka, KS 66604","latitude":39.0385,"longitude":-95.7615},"004130":{"address":"12910 Foothill Blvd Sylmar, CA 91342","latitude":34.2941,"longitude":-118.416},"004132":{"address":"4703 E 51st St Tulsa, OK 74135","latitude":36.09,"longitude":-95.9246},"004133":{"address":"121 Valley Rd Arkadelphia, AR 71923","latitude":34.1799,"longitude":-93.0712},"004134":{"address":"8109 E 74Th Pl. Tulsa, OK 74133","latitude":36.0572,"longitude":-95.8858},"004135":{"address":"2079 Main St Bellefontaine, OH 43311","latitude":40.331549,"longitude":-83.761241},"004136":{"address":"6350 NW Barry Road Kansas City, MO 64154","latitude":39.2476,"longitude":-94.6541},"004138":{"address":"651 Atlanta Rd Cumming, GA 30040","latitude":34.1877,"longitude":-84.1423},"004140":{"address":"168 Grant Ave Auburn, NY 13021","latitude":42.9452,"longitude":-76.5495},"004142":{"address":"902 N Main St La Fayette, GA 30728","latitude":34.7209,"longitude":-85.2798},"004143":{"address":"402 Dixieland Rd Harlingen, TX 78552","latitude":26.1872,"longitude":-97.7218},"004146":{"address":"1732 W. Main St. Salem, VA 24153","latitude":37.2885,"longitude":-80.0866},"004148":{"address":"608 N Main St Blacksburg, VA 24060","latitude":37.2337,"longitude":-80.4185},"004149":{"address":"1001 Juan Tabo Blvd NE Albuquerque, NM 87112","latitude":35.0871,"longitude":-106.515},"004150":{"address":"10554 Harrison Ave Harrison, OH 45030","latitude":39.253337,"longitude":-84.794571},"004161":{"address":"2855 S Rochester Rd Rochester Hills, MI 48307","latitude":42.6381,"longitude":-83.1311},"004162":{"address":"7757 Tylersville Rd West Chester, OH 45069","latitude":39.3527,"longitude":-84.3663},"004168":{"address":"6119 Niles Street Bakersfield, CA 93306","latitude":35.3756,"longitude":-118.936},"004170":{"address":"6281 Hwy 90 West Milton, FL 32570","latitude":30.6067,"longitude":-87.0626},"004172":{"address":"4165 S Danville Dr Abilene, TX 79605","latitude":32.4027,"longitude":-99.7588},"004173":{"address":"3555 Isleta Blvd SW Albuquerque, NM 87105","latitude":35.0247,"longitude":-106.681},"004177":{"address":"1115 S Broadway St Pittsburg, KS 66762","latitude":37.3978,"longitude":-94.7047},"004181":{"address":"31491 Santa Margarita Pky Rancho Santa Margarita, CA 92688","latitude":33.649,"longitude":-117.582},"004184":{"address":"1306 Scotland Crossing Laurinburg, NC 28352","latitude":34.7553,"longitude":-79.4826},"004185":{"address":"434 S Tyndall Parkway Panama City, FL 32404","latitude":30.1389,"longitude":-85.5913},"004186":{"address":"8430 Dorchester Road North Charleston, SC 29420","latitude":32.9152,"longitude":-80.1088},"004187":{"address":"3828 Broadway Quincy, IL 62301","latitude":39.9349,"longitude":-91.3539},"004188":{"address":"901 Lincoln Wy E Chambersburg, PA 17201","latitude":39.9322,"longitude":-77.6446},"004189":{"address":"1208 Murfreesboro Rd Franklin, TN 37064","latitude":35.9154,"longitude":-86.8309},"004190":{"address":"3179 Erie Blvd East Syracuse, NY 13214","latitude":43.054,"longitude":-76.0747},"004191":{"address":"345 Rice Lake Square Wheaton, IL 60187","latitude":41.8295,"longitude":-88.0987},"004196":{"address":"1107 E Ennis Avenue Ennis, TX 75119","latitude":32.3336,"longitude":-96.6161},"004201":{"address":"2090 Harding Hwy Lima, OH 45804","latitude":40.7304,"longitude":-84.0672},"004208":{"address":"321 South 8th Street Moorhead, MN 56560","latitude":46.871,"longitude":-96.768},"004209":{"address":"508 E Nifong Blvd Columbia, MO 65201","latitude":38.9097,"longitude":-92.3319},"004212":{"address":"13770 Mono Way Sonora, CA 95370","latitude":37.9763,"longitude":-120.344},"004213":{"address":"902 Industrial Drive Summersville, WV 26651","latitude":38.3061,"longitude":-80.8325},"004223":{"address":"322 W State Route 173 Antioch, IL 60002","latitude":42.4706,"longitude":-88.0943},"004224":{"address":"13309 W Colonial Dr Winter Garden, FL 34787","latitude":28.5513,"longitude":-81.5804},"004225":{"address":"2722 De Kalb Pike Norristown, PA 19401","latitude":40.1398,"longitude":-75.3139},"004236":{"address":"820 Gardens Blvd Charlottesville, VA 22901","latitude":38.0845,"longitude":-78.4717},"004238":{"address":"112 S Highway 52 Moncks Corner, SC 29461","latitude":33.1899,"longitude":-79.9975},"004240":{"address":"1650 W Highway 260 Camp Verde, AZ 86322","latitude":34.57576,"longitude":-111.88241},"004241":{"address":"777 Washington Sq Shoping Cntr Washington, MO 63090","latitude":38.5378,"longitude":-91.0049},"004249":{"address":"1505 Flynn Rd Camarillo, CA 93012","latitude":34.2298,"longitude":-119.017},"004254":{"address":"49 Scott Swinney Dr Manchester, TN 37355","latitude":35.4579,"longitude":-86.0547},"004257":{"address":"2101 E NC Highway 54 Durham, NC 27713","latitude":35.9029,"longitude":-78.8947},"004258":{"address":"18407 S Dixie Hwy Miami, FL 33157","latitude":25.598,"longitude":-80.3542},"004259":{"address":"715 E Main St Lebanon, OH 45036","latitude":39.432,"longitude":-84.1933},"004264":{"address":"3050 Youngfield St Wheat Ridge, CO 80215","latitude":39.7594,"longitude":-105.142},"004266":{"address":"935 N Daleville Ave Daleville, AL 36322","latitude":31.32,"longitude":-85.7108},"004267":{"address":"2100 Kanoelehua Ave Hilo, HI 96720","latitude":19.6947,"longitude":-155.067},"004274":{"address":"207 Highway 12 West Starkville, MS 39759","latitude":33.4538,"longitude":-88.8198},"004283":{"address":"5218 Detroit Rd Sheffield Village, OH 44035","latitude":41.4251,"longitude":-82.0793},"004285":{"address":"1050 Hwy 412 W Siloam Springs, AR 72761","latitude":36.1748,"longitude":-94.5523},"004287":{"address":"420 West Jackson Macomb, IL 61455","latitude":40.459,"longitude":-90.6775},"004289":{"address":"1175 E. Oakton Des Plaines, IL 60018","latitude":42.0235,"longitude":-87.8964},"004290":{"address":"27371 La Paz Rd Laguna Niguel, CA 92677","latitude":33.5656,"longitude":-117.708},"004296":{"address":"3035 Riverside Dr Danville, VA 24541","latitude":36.5876,"longitude":-79.4212},"004298":{"address":"537 Tecumseh St Dundee, MI 48131","latitude":41.9583,"longitude":-83.6678},"004300":{"address":"3220 Gateway St Springfield, OR 97477","latitude":44.0801,"longitude":-123.042},"004301":{"address":"1702 W. Market St Bloomington, IL 61701","latitude":40.4833,"longitude":-89.0184},"004302":{"address":"4039 Arendell St Morehead City, NC 28557","latitude":34.7261,"longitude":-76.7667},"004303":{"address":"3197 West 5400 South Salt Lake City, UT 84118","latitude":40.653,"longitude":-111.967},"004304":{"address":"8440 N High St Columbus, OH 43235","latitude":40.1351,"longitude":-83.0163},"004306":{"address":"11291 Talbert Fountain Valley, CA 92708","latitude":33.7022,"longitude":-117.933},"004309":{"address":"34 Sergeant Prentiss Dr Natchez, MS 39120","latitude":31.525,"longitude":-91.3912},"004317":{"address":"1409 Browns Bridge Rd Gainesville, GA 30501","latitude":34.2864,"longitude":-83.8407},"004318":{"address":"307 E Main St Apopka, FL 32703","latitude":28.6732,"longitude":-81.5052},"004327":{"address":"2384 Lebanon Pike Nashville, TN 37214","latitude":36.1693,"longitude":-86.6831},"004338":{"address":"411 S Memorial Dr Prattville, AL 36067","latitude":32.4623,"longitude":-86.4506},"004339":{"address":"6343 W. Jefferson Blvd. Fort Wayne, IN 46804","latitude":41.0554,"longitude":-85.2248},"004347":{"address":"3601 13th St Saint Cloud, FL 34769","latitude":28.2492,"longitude":-81.3107},"004356":{"address":"7880 White Lane Bakersfield, CA 93309","latitude":35.3185,"longitude":-119.09},"004357":{"address":"1352 W Main Gaylord, MI 49735","latitude":45.0277,"longitude":-84.6957},"004358":{"address":"1406 Hershberger Road NW Roanoke, VA 24012","latitude":37.3148,"longitude":-79.958},"004359":{"address":"1319 S Muskogee Avenue Tahlequah, OK 74464","latitude":35.8992,"longitude":-94.9752},"004360":{"address":"2809 N East St Lansing, MI 48906","latitude":42.7625,"longitude":-84.5432},"004361":{"address":"1415 N Wayne St Angola, IN 46703","latitude":41.653,"longitude":-84.9998},"004365":{"address":"528 E Wickenburg Way Wickenburg, AZ 85358","latitude":33.9695,"longitude":-112.72},"004368":{"address":"8108 Geyer Springs Rd Little Rock, AR 72209","latitude":34.6761,"longitude":-92.3442},"004369":{"address":"6233 Colonel Glenn Rd Little Rock, AR 72204","latitude":34.7174,"longitude":-92.3442},"004370":{"address":"7040 W Hwy 98 Panama City Beach, FL 32407","latitude":30.1889,"longitude":-85.7602},"004371":{"address":"1802 Turner McCall Blvd Rome, GA 30161","latitude":34.2428,"longitude":-85.1614},"004375":{"address":"5050 S Quebec Denver, CO 80237","latitude":39.6249,"longitude":-104.904},"004377":{"address":"206 Westside Dr Durant, OK 74701","latitude":33.9996,"longitude":-96.406},"004381":{"address":"2432 S Seneca Wichita, KS 67217","latitude":37.6504,"longitude":-97.3524},"004386":{"address":"5002 Maryland Way Brentwood, TN 37027","latitude":36.0347,"longitude":-86.792},"004394":{"address":"14 Martha Layne Collins Blvd. Cold Spring, KY 41076","latitude":39.0278,"longitude":-84.4515},"004398":{"address":"1420 Broadway Boise, ID 83706","latitude":43.595,"longitude":-116.193},"004399":{"address":"2751 I-75 Business Spur Sault Sainte Marie, MI 49783","latitude":46.4749,"longitude":-84.356},"004402":{"address":"382 E Idaho Ave Ontario, OR 97914","latitude":44.0255,"longitude":-116.957},"004406":{"address":"1968 Glen Oaks Blvd San Fernando, CA 91340","latitude":34.2981,"longitude":-118.438},"004408":{"address":"2417 25th Ave Gulfport, MS 39501","latitude":30.3794,"longitude":-89.0932},"004410":{"address":"2770 Mcmurry Anderson, CA 96007","latitude":40.4531,"longitude":-122.291},"004414":{"address":"1088 State Route 3 N Gambrills, MD 21054","latitude":39.0255,"longitude":-76.6907},"004420":{"address":"2802 Candlers Mntn Rd Lynchburg, VA 24502","latitude":37.3706,"longitude":-79.1832},"004429":{"address":"1069 C St Galt, CA 95632","latitude":38.2535,"longitude":-121.296},"004430":{"address":"380 N.l. Roger Wells Blvd. Glasgow, KY 42141","latitude":37.0072,"longitude":-85.9243},"004431":{"address":"1180 Powder Springs St Marietta, GA 30064","latitude":33.9245,"longitude":-84.5749},"004433":{"address":"324 S Brookhurst Anaheim, CA 92804","latitude":33.8279,"longitude":-117.959},"004435":{"address":"11893 E Colonial Dr Orlando, FL 32826","latitude":28.5669,"longitude":-81.2056},"004436":{"address":"1430 Cottongrove Rd Lexington, NC 27292","latitude":35.7844,"longitude":-80.2601},"004438":{"address":"8500 W Crestline, Unit 8 Littleton, CO 80123","latitude":39.6172,"longitude":-105.092},"004439":{"address":"11230 Sun Center Dr Rancho Cordova, CA 95670","latitude":38.5978,"longitude":-121.266},"004442":{"address":"3063 S Wolf Rd Westchester, IL 60154","latitude":41.8343,"longitude":-87.9003},"004445":{"address":"774 S Main St Milpitas, CA 95035","latitude":37.42,"longitude":-121.904},"004451":{"address":"2391 George Washington Hayes, VA 23072","latitude":37.2758,"longitude":-76.4991},"004452":{"address":"858 Folly Rd Charleston, SC 29412","latitude":32.7374,"longitude":-79.9665},"004454":{"address":"95-1249 Meheula Pkwy Mililani, HI 96789","latitude":21.4526,"longitude":-158.008},"004455":{"address":"91-763 Papipi Rd Ewa Beach, HI 96706","latitude":21.3155,"longitude":-158.014},"004456":{"address":"11 Commerce Way Seekonk, MA 02771","latitude":41.7934,"longitude":-71.3241},"004457":{"address":"5110 Sunset Rd Charlotte, NC 28269","latitude":35.3083,"longitude":-80.8426},"004461":{"address":"508 S George Nigh Expy McAlester, OK 74501","latitude":34.9171,"longitude":-95.7447},"004462":{"address":"500 N Mississippi Ada, OK 74820","latitude":34.7792,"longitude":-96.6697},"004465":{"address":"1320 Highway 278 Byp Camden, AR 71701","latitude":33.5735,"longitude":-92.8553},"004467":{"address":"2935 SW 32nd Ave Miami, FL 33133","latitude":25.7364,"longitude":-80.2457},"004468":{"address":"2695 Zelda Rd Montgomery, AL 36107","latitude":32.3641,"longitude":-86.2671},"004470":{"address":"624 1st Ave NE Cedar Rapids, IA 52401","latitude":41.982,"longitude":-91.6636},"004472":{"address":"9395 Coors Rd NW Albuquerque, NM 87114","latitude":35.1866,"longitude":-106.663},"004473":{"address":"229 S. Hwy 27 Somerset, KY 42501","latitude":37.0909,"longitude":-84.6177},"004474":{"address":"22599 MacArthur Blvd California, MD 20619","latitude":38.2889,"longitude":-76.4845},"004477":{"address":"12918 S US Highway 71 Grandview, MO 64030","latitude":38.8894,"longitude":-94.5261},"004479":{"address":"10800 Lorain Ave Cleveland, OH 44111","latitude":41.4646,"longitude":-81.7617},"004480":{"address":"2020 N. Coliseum Blvd. Fort Wayne, IN 46805","latitude":41.0956,"longitude":-85.0877},"004485":{"address":"810 N Euclid Anaheim, CA 92801","latitude":33.8432,"longitude":-117.941},"004486":{"address":"2390 E Stop 11 Rd Indianapolis, IN 46227","latitude":39.6508,"longitude":-86.1218},"004495":{"address":"1011 N Main St Nicholasville, KY 40356","latitude":37.8984,"longitude":-84.5657},"004496":{"address":"7791 Sudley Rd Manassas, VA 20109","latitude":38.7882,"longitude":-77.5135},"004501":{"address":"1061 North Court Street Medina, OH 44256","latitude":41.1563,"longitude":-81.8631},"004502":{"address":"15295 George O'Neal Ln. Baton Rouge, LA 70817","latitude":30.4086,"longitude":-91.0151},"004503":{"address":"1202 N. Airline Hwy. Gonzales, LA 70737","latitude":30.2425,"longitude":-90.9171},"004505":{"address":"318 E Broadway Council Bluffs, IA 51503","latitude":41.2649,"longitude":-95.8416},"004507":{"address":"1022 Mountain Laurel Plaza Latrobe, PA 15650","latitude":40.2844,"longitude":-79.3915},"004508":{"address":"1922 Empire Blvd Webster, NY 14580","latitude":43.1917,"longitude":-77.5024},"004510":{"address":"2300 H Street Bakersfield, CA 93301","latitude":35.3807,"longitude":-119.021},"004513":{"address":"10729 University Ave NE Blaine, MN 55434","latitude":45.1652,"longitude":-93.2658},"004517":{"address":"1150 W Foothill Azusa, CA 91702","latitude":34.1335,"longitude":-117.924},"004519":{"address":"4370 Summer Ave Memphis, TN 38122","latitude":35.1492,"longitude":-89.915},"004521":{"address":"4418 W Us Highway 10 Ludington, MI 49431","latitude":43.9566,"longitude":-86.3899},"004523":{"address":"5808 E Central Wichita, KS 67208","latitude":37.6941,"longitude":-97.269},"004526":{"address":"3708 Virginia Beach Blvd Virginia Beach, VA 23452","latitude":36.8404,"longitude":-76.1002},"004528":{"address":"985 Main St Tipp City, OH 45371","latitude":39.961305,"longitude":-84.187482},"004530":{"address":"21700 Ecorse Rd Taylor, MI 48180","latitude":42.2565,"longitude":-83.2479},"004531":{"address":"30842 Highway 441 South Commerce, GA 30529","latitude":34.2504,"longitude":-83.461},"004535":{"address":"401 Chestnut Street Terre Haute, IN 47808","latitude":39.4705,"longitude":-87.4106},"004541":{"address":"3500 W Genesee St Syracuse, NY 13219","latitude":43.0487,"longitude":-76.2312},"004543":{"address":"560 NW Phoenix Dr Troutdale, OR 97060","latitude":45.5443,"longitude":-122.394},"004548":{"address":"4601 E Main St Farmington, NM 87402","latitude":36.7642,"longitude":-108.153},"004549":{"address":"400 Oriskany Blvd Yorkville, NY 13495","latitude":43.1142,"longitude":-75.2763},"004554":{"address":"11758 S Wilmington Los Angeles, CA 90059","latitude":33.9262,"longitude":-118.239},"004560":{"address":"12025 Greenspoint Dr Houston, TX 77060","latitude":29.942,"longitude":-95.4079},"004565":{"address":"9600 N Rodney Parham Rd Little Rock, AR 72227","latitude":34.7607,"longitude":-92.3804},"004566":{"address":"1928 West Highway 30 Gonzales, LA 70737","latitude":30.2109,"longitude":-90.9415},"004576":{"address":"1914 W Rosecrans Ave Compton, CA 90220","latitude":33.9021,"longitude":-118.253},"004577":{"address":"4620 Highpoint Rd Greensboro, NC 27407","latitude":36.0314,"longitude":-79.8682},"004578":{"address":"3315 Union Ave Bakersfield, CA 93305","latitude":35.3894,"longitude":-119.003},"004580":{"address":"201 S Service Rd Blytheville, AR 72315","latitude":35.9272,"longitude":-89.8753},"004583":{"address":"5163 Carmichael Rd Montgomery, AL 36106","latitude":32.3599,"longitude":-86.2174},"004589":{"address":"9067 Fields Ertel Rd Cincinnati, OH 45249","latitude":39.2922,"longitude":-84.3108},"004590":{"address":"3031 Cleveland Avenue Canton, OH 44709","latitude":40.8325,"longitude":-81.3883},"004591":{"address":"7659 Hwy 70 S Bellevue, TN 37221","latitude":36.0784,"longitude":-86.9515},"004599":{"address":"43466 State Highway 74 Hemet, CA 92544","latitude":33.748,"longitude":-116.903},"004601":{"address":"212 Riverview Ave Logan, WV 25601","latitude":37.8482,"longitude":-82.0001},"004609":{"address":"23475 Sussex Hwy. Seaford, DE 19973","latitude":38.6533,"longitude":-75.5938},"004610":{"address":"1086 W Patrick St. Frederick, MD 21703","latitude":39.4169,"longitude":-77.4455},"004613":{"address":"1800 Hamilton Blvd Sioux City, IA 51103","latitude":42.5099,"longitude":-96.4166},"004615":{"address":"7210 W. Broad St. Richmond, VA 23230","latitude":37.6139,"longitude":-77.5209},"004618":{"address":"2211 N Reynolds Rd Bryant, AR 72022","latitude":34.6154,"longitude":-92.4987},"004620":{"address":"871 Germantown Pkwy Cordova, TN 38018","latitude":35.1489,"longitude":-89.7959},"004623":{"address":"1804 W University Dr Edinburg, TX 78539","latitude":26.3038,"longitude":-98.1814},"004629":{"address":"4915 Watt Ave North Highlands, CA 95660","latitude":38.6544,"longitude":-121.383},"004631":{"address":"1601 Hwy 270, Ste #219 Malvern, AR 72104","latitude":34.3835,"longitude":-92.8281},"004634":{"address":"4050 Marlton Ave Los Angeles, CA 90008","latitude":34.0112,"longitude":-118.339},"004636":{"address":"228 E Seventh Long Beach, CA 90813","latitude":33.7753,"longitude":-118.19},"004640":{"address":"1501 Governor's Place Bear, DE 19701","latitude":39.6329,"longitude":-75.6616},"004642":{"address":"2250 S University Dr. Davie, FL 33324","latitude":26.093,"longitude":-80.2507},"004646":{"address":"1201 N Keller Effingham, IL 62401","latitude":39.1369,"longitude":-88.565},"004647":{"address":"8030 Gratiot Rd. Saginaw, MI 48609","latitude":43.4162,"longitude":-84.072},"004653":{"address":"1065 E New Circle Rd Lexington, KY 40505","latitude":38.0367,"longitude":-84.4539},"004655":{"address":"610 N Webster St Taylorville, IL 62568","latitude":39.5552,"longitude":-89.2971},"004656":{"address":"1441 Gardiner Lane Louisville, KY 40213","latitude":38.1982,"longitude":-85.6957},"004659":{"address":"1280 S Shannon St Van Wert, OH 45891","latitude":40.8519,"longitude":-84.6002},"004660":{"address":"17250 Bear Valley Rd Victorville, CA 92392","latitude":34.4712,"longitude":-117.286},"004663":{"address":"4655 Riverdale Road Memphis, TN 38141","latitude":35.0213,"longitude":-89.8317},"004665":{"address":"1124 Randolph St Thomasville, NC 27360","latitude":35.8581,"longitude":-80.0731},"004672":{"address":"3464 N. Rice Street Saint Paul, MN 55126","latitude":45.0466,"longitude":-93.1059},"004678":{"address":"3653 E Grand River Ave. Howell, MI 48843","latitude":42.5896,"longitude":-83.8807},"004680":{"address":"102 S Walton Blvd Bentonville, AR 72712","latitude":36.3722,"longitude":-94.2219},"004681":{"address":"1535 E 71st St Tulsa, OK 74136","latitude":36.0611,"longitude":-95.9699},"004683":{"address":"402 N 12th St Murray, KY 42071","latitude":36.6158,"longitude":-88.3146},"004685":{"address":"1991 Mt Zion Rd Decatur, IL 62521","latitude":39.8184,"longitude":-88.8788},"004692":{"address":"One Shields Avenue Davis, CA 95616","latitude":38.546787,"longitude":-121.758888},"004696":{"address":"2030 N Mitchell Cadillac, MI 49601","latitude":44.2795,"longitude":-85.4061},"004699":{"address":"8095 Oswego Rd Liverpool, NY 13090","latitude":43.1631,"longitude":-76.2355},"004704":{"address":"4101 Jamboree Rd Newport Beach, CA 92660","latitude":33.6595,"longitude":-117.861},"004714":{"address":"854 Statler Blvd Staunton, VA 24401","latitude":38.1384,"longitude":-79.0667},"004715":{"address":"8300 NE Vancouver Plaza Dr Vancouver, WA 98662","latitude":45.6536,"longitude":-122.588},"004718":{"address":"800 E Broadway St Campbellsville, KY 42718","latitude":37.3481,"longitude":-85.3349},"004720":{"address":"1430 W Locust Cabot, AR 72023","latitude":34.9794,"longitude":-92.0304},"004721":{"address":"9270 Plainfield Rd Cincinnati, OH 45236","latitude":39.2282,"longitude":-84.3941},"004723":{"address":"2152 Rockford St Mount Airy, NC 27030","latitude":36.4759,"longitude":-80.6196},"004725":{"address":"450 Dual Hwy Hagerstown, MD 21740","latitude":39.6384,"longitude":-77.7103},"004726":{"address":"1665 S Pleasant Valley Rd Winchester, VA 22601","latitude":39.1667,"longitude":-78.1648},"004727":{"address":"377 N Canal Blvd Thibodaux, LA 70301","latitude":29.8048,"longitude":-90.8161},"004730":{"address":"910 Elmridge Center Dr Rochester, NY 14626","latitude":43.2139,"longitude":-77.7259},"004740":{"address":"5161 S. Cobb Dr. Smyrna, GA 30080","latitude":33.8294,"longitude":-84.4921},"004741":{"address":"9637 Highway 78 Ladson, SC 29456","latitude":32.9891,"longitude":-80.1004},"004748":{"address":"3091 Solomons Island Rd Edgewater, MD 21037","latitude":38.9398,"longitude":-76.5639},"004749":{"address":"5013 W Main Kalamazoo, MI 49009","latitude":42.2959,"longitude":-85.6487},"004752":{"address":"1160 N Mclean Blvd Elgin, IL 60123","latitude":42.0606,"longitude":-88.3158},"004753":{"address":"391 Bells Hwy Walterboro, SC 29488","latitude":32.9157,"longitude":-80.6733},"004758":{"address":"1440 Martin Luther King Jr Way Merced, CA 95340","latitude":37.2977,"longitude":-120.481},"004759":{"address":"925 East Fm 802 Brownsville, TX 78520","latitude":25.9494,"longitude":-97.5069},"004760":{"address":"4908 Hardy St Hattiesburg, MS 39402","latitude":31.3227,"longitude":-89.3649},"004762":{"address":"3236 Western Branch Blvd Chesapeake, VA 23321","latitude":36.8647,"longitude":-76.4074},"004773":{"address":"2304 Princeton St Ottawa, KS 66067","latitude":38.579,"longitude":-95.2682},"004775":{"address":"12820 Jefferson Davis Hwy Chester, VA 23831","latitude":37.352,"longitude":-77.4124},"004778":{"address":"8091 Ocean Gateway Easton, MD 21601","latitude":38.7713,"longitude":-76.0598},"004779":{"address":"1217 N Bright Leaf Blvd Smithfield, NC 27577","latitude":35.5199,"longitude":-78.3125},"004782":{"address":"2515 High Point Rd. Greensboro, NC 27403","latitude":36.0547,"longitude":-79.8315},"004787":{"address":"208 E Corsicana Athens, TX 75751","latitude":32.2041,"longitude":-95.8534},"004789":{"address":"6789 Clinton Highway Knoxville, TN 37912","latitude":36.0068,"longitude":-84.0277},"004791":{"address":"1225 Burkemont Ave Morganton, NC 28655","latitude":35.7154,"longitude":-81.6965},"004794":{"address":"3740 Battleground Ave Greensboro, NC 27410","latitude":36.135,"longitude":-79.859},"004795":{"address":"10917 Carolina Place Pkwy Pineville, NC 28134","latitude":35.0858,"longitude":-80.8797},"004796":{"address":"1079 E Stuart Dr. Galax, VA 24333","latitude":36.6861,"longitude":-80.8867},"004801":{"address":"3716 Brewerton Road North Syracuse, NY 13212","latitude":43.1167,"longitude":-76.1445},"004802":{"address":"1485 N Montebello Blvd Montebello, CA 90640","latitude":34.0336,"longitude":-118.092},"004804":{"address":"651 E Broadway Missoula, MT 59802","latitude":46.8696,"longitude":-113.986},"004805":{"address":"1606 Navajo Blvd Holbrook, AZ 86025","latitude":34.9187,"longitude":-110.151},"004806":{"address":"905 S Jefferson Mount Pleasant, TX 75455","latitude":33.1483,"longitude":-94.9683},"004807":{"address":"1782 1st Street Kennett, MO 63857","latitude":36.2374,"longitude":-90.034},"004811":{"address":"1410 S Azusa Ave West Covina, CA 91791","latitude":34.0491,"longitude":-117.908},"004812":{"address":"48 Washington St Norwell, MA 02061","latitude":42.1733,"longitude":-70.8814},"004814":{"address":"7373 Northwoods Blvd North Charleston, SC 29406","latitude":32.9357,"longitude":-80.0455},"004818":{"address":"3200 S. Airport Road, W., Suite 608 Traverse City, MI 49684","latitude":44.7256,"longitude":-85.6401},"004819":{"address":"23146 Valencia Blvd Santa Clarita, CA 91355","latitude":34.4212,"longitude":-118.542},"004826":{"address":"650 Sawdust Rd Spring, TX 77380","latitude":30.127,"longitude":-95.4526},"004840":{"address":"7649 S Harlem Ave Bridgeview, IL 60455","latitude":41.752214,"longitude":-87.799425},"004841":{"address":"10221 Hull Street Rd Midlothian, VA 23112","latitude":37.4419,"longitude":-77.5857},"004842":{"address":"849 S Broad St Brooksville, FL 34601","latitude":28.546,"longitude":-82.4001},"004843":{"address":"1715 Galleria Blvd Franklin, TN 37067","latitude":35.9646,"longitude":-86.8115},"004847":{"address":"98-1005 Moanalua Rd Aiea, HI 96701","latitude":21.385644,"longitude":-157.940449},"004848":{"address":"3250 Center Rd Brunswick, OH 44212","latitude":41.2379,"longitude":-81.8029},"004850":{"address":"13910 Grove Dr Maple Grove, MN 55311","latitude":45.1046,"longitude":-93.4571},"004858":{"address":"1025 Hampton Rd McDonough, GA 30253","latitude":33.4302,"longitude":-84.1787},"004859":{"address":"810 Dakota Ave South Sioux City, NE 68776","latitude":42.4813,"longitude":-96.4129},"004863":{"address":"172 Turnersburg Hwy Statesville, NC 28625","latitude":35.8117,"longitude":-80.8756},"004865":{"address":"4-927 Kuhio Hwy Kapaa, HI 96746","latitude":22.0633,"longitude":-159.32},"004879":{"address":"8823 Greenback Lane Orangevale, CA 95662","latitude":38.6789,"longitude":-121.229},"004881":{"address":"1557 W Broad St Columbus, OH 43222","latitude":39.957,"longitude":-83.0417},"004882":{"address":"4770 Saw Mill Rd Columbus, OH 43235","latitude":40.0664,"longitude":-83.0927},